SALE TYPE,SOLD DATE,PROPERTY TYPE,ADDRESS,CITY,STATE OR PROVINCE,ZIP OR POSTAL CODE,PRICE,BEDS,BATHS,LOCATION,SQUARE FEET,LOT SIZE,YEAR BUILT,DAYS ON MARKET,$/SQUARE FEET,HOA/MONTH,STATUS,NEXT OPEN HOUSE START TIME,NEXT OPEN HOUSE END TIME,URL (SEE https://www.redfin.com/buy-a-home/comparative-market-analysis FOR INFO ON PRICING),SOURCE,MLS#,FAVORITE,INTERESTED,LATITUDE,LONGITUDE
PAST SALE,,Townhouse,1409 Steuart St,Baltimore,MD,21230,525000,,3,,2252,1002,2006,,233,,,,,https://www.redfin.com/MD/Baltimore/1409-Steuart-St-21230/home/11891759,,,N,Y,39.2686062,-76.5890527
PAST SALE,September-8-2023,Townhouse,632 Ponca St,Baltimore,MD,21224,199900,4,2,Ward 26,1452,962,1930,,138,,Sold,,,https://www.redfin.com/MD/Baltimore/632-Ponca-St-21224/home/11069085,BRIGHT MLS,MDBA2086734,N,Y,39.2853503,-76.5550505
PAST SALE,May-15-2023,Townhouse,418 Drew St,Baltimore,MD,21224,200000,2,2,Ward 26,1228,,1929,,163,,Sold,,,https://www.redfin.com/MD/Baltimore/418-Drew-St-21224/home/11082220,BRIGHT MLS,MDBA2080792,N,Y,39.2885061,-76.5440101
PAST SALE,June-15-2023,Townhouse,209 S Bouldin St,Baltimore,MD,21224,265000,2,1.5,Ward 26,1160,,1900,,228,,Sold,,,https://www.redfin.com/MD/Baltimore/209-S-Bouldin-St-21224/home/11076685,BRIGHT MLS,MDBA2084280,N,Y,39.2894225,-76.5707426
PAST SALE,May-17-2023,Townhouse,2336 Cambridge Walk,Baltimore,MD,21224,566000,3,3.5,Ward 1,2400,,2003,,236,75,Sold,,,https://www.redfin.com/MD/Baltimore/2336-Cambridge-Walk-21224/home/11222038,BRIGHT MLS,MDBA2081808,N,Y,39.2831129,-76.5830626
PAST SALE,July-17-2023,Townhouse,1431 W 36th St,Baltimore,MD,21211,292000,2,1,Ward 13,1382,1653,1880,,211,,Sold,,,https://www.redfin.com/MD/Baltimore/1431-W-36th-St-21211/home/10860473,BRIGHT MLS,MDBA2086868,N,Y,39.3299611,-76.6386946
PAST SALE,June-30-2023,Townhouse,1710 Ingram Rd,Baltimore,MD,21239,200000,3,2,Ward 27,1600,2178,1954,,125,,Sold,,,https://www.redfin.com/MD/Baltimore/1710-Ingram-Rd-21239/home/11185265,BRIGHT MLS,MDBA2078898,N,Y,39.3512623,-76.5835554
PAST SALE,October-24-2023,Townhouse,1510 Sheffield Rd,Baltimore,MD,21218,279000,4,2.5,Ward 27,1840,,1942,,152,1,Sold,,,https://www.redfin.com/MD/Baltimore/1510-Sheffield-Rd-21218/home/11146253,BRIGHT MLS,MDBA2099432,N,Y,39.3421705,-76.5917047
PAST SALE,June-20-2023,Townhouse,1837 Light St,Baltimore,MD,21230,280000,2,1.5,Ward 24,1053,1001,1900,,266,,Sold,,,https://www.redfin.com/MD/Baltimore/1837-Light-St-21230/home/11018915,BRIGHT MLS,MDBA2085476,N,Y,39.2687342,-76.6116775
PAST SALE,May-2-2023,Townhouse,147 S Bouldin St,Baltimore,MD,21224,395000,3,3.5,Ward 26,1932,910,1920,,204,,Sold,,,https://www.redfin.com/MD/Baltimore/147-S-Bouldin-St-21224/home/174689971,BRIGHT MLS,MDBA2075832,N,Y,39.2903067,-76.5708317
PAST SALE,May-5-2023,Townhouse,5736 Greenspring Ave,Mount Washington,MD,21209,380000,3,2.5,Ward 27,2054,,1947,,185,,Sold,,,https://www.redfin.com/MD/Baltimore/5736-Greenspring-Ave-21209/home/11180107,BRIGHT MLS,MDBA2079006,N,Y,39.3629976,-76.6694187
PAST SALE,May-16-2023,Townhouse,805 Mchenry St,Baltimore,MD,21230,355000,4,3.5,Ward 21,2288,1263,2006,,155,108,Sold,,,https://www.redfin.com/MD/Baltimore/805-McHenry-St-21230/home/23462246,BRIGHT MLS,MDBA2081894,N,Y,39.2846984,-76.6293842
PAST SALE,May-17-2023,Single Family Residential,3505 Cascade Ave,Baltimore,MD,21206,255000,3,2,Ward 27,1638,6360,1956,,156,,Sold,,,https://www.redfin.com/MD/Baltimore/3505-Cascade-Ave-21206/home/11132235,BRIGHT MLS,MDBA2081700,N,Y,39.3518773,-76.5479426
PAST SALE,August-4-2023,Townhouse,22 S Washington St,Baltimore,MD,21231,285000,3,2,Ward 2,1490,871,1900,,191,,Sold,,,https://www.redfin.com/MD/Baltimore/22-S-Washington-St-21231/home/10741939,BRIGHT MLS,MDBA2091282,N,Y,39.2910563,-76.589297
PAST SALE,July-28-2023,Townhouse,1219 W 40th St,Baltimore,MD,21211,375000,3,2,Ward 13,1400,,1929,,268,,Sold,,,https://www.redfin.com/MD/Baltimore/1219-W-40th-St-21211/home/10874453,BRIGHT MLS,MDBA2090618,N,Y,39.3363288,-76.6375935
PAST SALE,July-31-2023,Single Family Residential,3507 White Chapel Rd,Baltimore,MD,21215,370000,4,3.5,Ward 15,2272,5940,1939,,163,,Sold,,,https://www.redfin.com/MD/Baltimore/3507-White-Chapel-Rd-21215/home/10905233,BRIGHT MLS,MDBA2089656,N,Y,39.3270887,-76.6712077
PAST SALE,July-27-2023,Townhouse,4212 Skyview,Baltimore,MD,21211,515000,4,4.5,Ward 13,2097,,2017,,246,112,Sold,,,https://www.redfin.com/MD/Baltimore/4212-Skyview-21211/home/109860727,BRIGHT MLS,MDBA2088482,N,Y,39.3394251,-76.6368151
PAST SALE,September-15-2023,Townhouse,2739 Maryland Ave,Baltimore,MD,21218,415000,4,2.5,Ward 12,2502,,1920,,166,,Sold,,,https://www.redfin.com/MD/Baltimore/2739-Maryland-Ave-21218/home/10841178,BRIGHT MLS,MDBA2095030,N,Y,39.3214892,-76.6183136
PAST SALE,September-13-2023,Townhouse,811 S Streeper St,Baltimore,MD,21224,285000,2,1,Ward 1,1054,,1920,,270,,Sold,,,https://www.redfin.com/MD/Baltimore/811-S-Streeper-St-21224/home/10736324,BRIGHT MLS,MDBA2093502,N,Y,39.2826578,-76.5761527
PAST SALE,May-31-2023,Townhouse,3518 Greenmount Ave,Baltimore,MD,21218,392000,4,3.5,Ward 12,2916,436,1919,,134,,Sold,,,https://www.redfin.com/MD/Baltimore/3518-Greenmount-Ave-21218/home/10851636,BRIGHT MLS,MDBA2080946,N,Y,39.3315967,-76.6097577
PAST SALE,,Townhouse,303 W Madison St,Baltimore,MD,21201,369000,,3,,2496,1159,1900,,148,,,,,https://www.redfin.com/MD/Baltimore/303-W-Madison-St-21201/home/25796674,,,N,Y,39.298238,-76.6204446
PAST SALE,September-15-2023,Single Family Residential,3129 Chesley Ave,Baltimore,MD,21234,230000,3,2,Ward 27,2196,7497,1913,,105,,Sold,,,https://www.redfin.com/MD/Baltimore/3129-Chesley-Ave-21234/home/11138878,BRIGHT MLS,MDBA2092538,N,Y,39.3638319,-76.5453686
PAST SALE,October-16-2023,Townhouse,1023 S Bouldin St,Baltimore,MD,21224,385000,2,2.5,Ward 26,1754,,1920,,219,,Sold,,,https://www.redfin.com/MD/Baltimore/1023-S-Bouldin-St-21224/home/11070438,BRIGHT MLS,MDBA2098530,N,Y,39.2808517,-76.5701336
PAST SALE,June-30-2023,Single Family Residential,2915 Glenmore Ave,Baltimore,MD,21214,395000,5,4,Ward 27,2268,7496,1927,,174,,Sold,,,https://www.redfin.com/MD/Baltimore/2915-Glenmore-Ave-21214/home/11142940,BRIGHT MLS,MDBA2087252,N,Y,39.356594,-76.5593217
PAST SALE,August-4-2023,Townhouse,319 S Chester St,Baltimore,MD,21231,430000,3,3.5,Ward 1,1692,718,1920,,254,,Sold,,,https://www.redfin.com/MD/Baltimore/319-S-Chester-St-21231/home/10727253,BRIGHT MLS,MDBA2091080,N,Y,39.287484,-76.5869328
PAST SALE,May-11-2023,Single Family Residential,3218 Cedarhurst Rd,Baltimore,MD,21214,287000,3,2,Ward 27,1621,5040,1942,,177,,Sold,,,https://www.redfin.com/MD/Baltimore/3218-Cedarhurst-Rd-21214/home/11121056,BRIGHT MLS,MDBA2078000,N,Y,39.3413731,-76.565368
PAST SALE,July-28-2023,Townhouse,5200 Belleville,Baltimore,MD,21207,222000,4,1,Ward 28,1428,,1920,,155,,Sold,,,https://www.redfin.com/MD/Baltimore/5200-Belleville-Ave-21207/home/11215734,BRIGHT MLS,MDBA2090050,N,Y,39.3325304,-76.7026762
PAST SALE,,Townhouse,1226 S Highland Ave,Baltimore,MD,21224,425000,,1,,1968,1335,1920,,216,,,,,https://www.redfin.com/MD/Baltimore/1226-S-Highland-Ave-21224/home/11067884,,,N,Y,39.2787994,-76.5687372
PAST SALE,August-18-2023,Townhouse,502 Archer St,Baltimore,MD,21230,205000,2,2,Ward 21,858,,1900,,239,,Sold,,,https://www.redfin.com/MD/Baltimore/502-Archer-St-21230/home/11001542,BRIGHT MLS,MDBA2092322,N,Y,39.2825809,-76.6302376
PAST SALE,,Single Family Residential,3512 White Ave,Baltimore,MD,21214,190000,,1.5,,1575,10197,1926,,121,,,,,https://www.redfin.com/MD/Baltimore/3512-White-Ave-21214/home/11133408,,,N,Y,39.3502953,-76.5507423
PAST SALE,October-16-2023,Townhouse,2814 Pelham Ave,Baltimore,MD,21213,132000,2,1.5,Ward 27,1543,1742,1927,,86,,Sold,,,https://www.redfin.com/MD/Baltimore/2814-Pelham-Ave-21213/home/180311452,BRIGHT MLS,MDBA2097690,N,Y,39.3255665,-76.5717434
PAST SALE,September-25-2023,Townhouse,1829 N Wolfe St,Baltimore,MD,21213,235000,4,3.5,Ward 8,,1800,1913,,,,Sold,,,https://www.redfin.com/MD/Baltimore/1829-N-Wolfe-St-21213/home/10781711,BRIGHT MLS,MDBA2095682,N,Y,39.3117157,-76.5914801
PAST SALE,September-8-2023,Single Family Residential,4413 Hooper Ave,Baltimore,MD,21229,324900,3,2,RIDGEWOOD,1224,6250,1930,,265,,Sold,,,https://www.redfin.com/MD/Baltimore/4413-Hooper-Ave-21229/home/9368720,BRIGHT MLS,MDBC2074428,N,Y,39.2636858,-76.6915321
PAST SALE,June-2-2023,Townhouse,2915 Keswick Rd,Baltimore,MD,21211,330000,3,1.5,Ward 13,1344,,1880,,246,,Sold,,,https://www.redfin.com/MD/Baltimore/2915-Keswick-Rd-21211/home/10869885,BRIGHT MLS,MDBA2080432,N,Y,39.32254,-76.6277445
PAST SALE,August-4-2023,Single Family Residential,3128 Northway Dr,Baltimore,MD,21234,280000,3,1.5,Ward 27,1158,6000,1930,,242,,Sold,,,https://www.redfin.com/MD/Baltimore/3128-Northway-Dr-21234/home/11139155,BRIGHT MLS,MDBA2087582,N,Y,39.3623701,-76.5461363
PAST SALE,September-26-2023,Townhouse,1204 W Cross St W,Baltimore,MD,21230,142900,2,1,Ward 21,912,,1900,,157,,Sold,,,https://www.redfin.com/MD/Baltimore/1204-W-Cross-St-21230/home/11001471,BRIGHT MLS,MDBA2094638,N,Y,39.2821801,-76.6312461
PAST SALE,June-16-2023,Single Family Residential,4413 Belvieu Ave,Baltimore,MD,21215,407000,7,5.5,Ward 28,1832,7497,1935,,222,,Sold,,,https://www.redfin.com/MD/Baltimore/4413-Belvieu-Ave-21215/home/11214330,BRIGHT MLS,MDBA2082412,N,Y,39.3394763,-76.695251
PAST SALE,,Single Family Residential,6018 Eurith Ave,Baltimore,MD,21206,252000,,2,,1824,6451,1948,,138,,,,,https://www.redfin.com/MD/Baltimore/6018-Eurith-Ave-21206/home/11097435,,,N,Y,39.3478575,-76.5313237
PAST SALE,June-16-2023,Townhouse,1631 S Hanover St,Baltimore,MD,21230,292000,3,1.5,Ward 23,1380,,1900,,212,,Sold,,,https://www.redfin.com/MD/Baltimore/1631-S-Hanover-St-21230/home/11011684,BRIGHT MLS,MDBA2082162,N,Y,39.270912,-76.6149656
PAST SALE,May-15-2023,Townhouse,4435 Newport Ave,Baltimore,MD,21211,240000,3,2,Ward 27,1160,,1927,,207,,Sold,,,https://www.redfin.com/MD/Baltimore/4435-Newport-Ave-21211/home/11154211,BRIGHT MLS,MDBA2078804,N,Y,39.3428943,-76.6409731
PAST SALE,July-25-2023,Single Family Residential,311 Willow Ave,Baltimore,MD,21206,250000,4,1.5,WILLOWDALE,1080,5760,1940,,231,,Sold,,,https://www.redfin.com/MD/Baltimore/311-Willow-Ave-21206/home/9389422,BRIGHT MLS,MDBC2064132,N,Y,39.3545089,-76.5225617
PAST SALE,June-16-2023,Townhouse,629 S Streeper St,Baltimore,MD,21224,295000,3,2,Ward 1,1360,,1910,,217,,Sold,,,https://www.redfin.com/MD/Baltimore/629-S-Streeper-St-21224/home/10738712,BRIGHT MLS,MDBA2082692,N,Y,39.2846611,-76.5762414
PAST SALE,May-12-2023,Townhouse,7434 Berkshire Rd,Baltimore,MD,21224,218000,3,2,FORDHAM,1056,3192,1954,,206,,Sold,,,https://www.redfin.com/MD/Baltimore/7434-Berkshire-Rd-21224/home/9339432,BRIGHT MLS,MDBC2064580,N,Y,39.2856675,-76.5095871
PAST SALE,May-22-2023,Townhouse,925 Grundy St,Baltimore,MD,21224,740000,3,3.5,Ward 26,2289,1307,2019,,323,150,Sold,,,https://www.redfin.com/MD/Baltimore/925-Grundy-St-21224/home/166812932,BRIGHT MLS,MDBA2078980,N,Y,39.2818249,-76.562912
PAST SALE,August-21-2023,Townhouse,2218 Fleet St,Baltimore,MD,21231,410000,3,2.5,Ward 1,1926,19,1920,,213,,Sold,,,https://www.redfin.com/MD/Baltimore/2218-Fleet-St-21231/home/10727940,BRIGHT MLS,MDBA2093038,N,Y,39.2850448,-76.5851829
PAST SALE,September-27-2023,Townhouse,3669 Ash St,Baltimore,MD,21211,363000,3,2.5,Ward 13,1853,3013,1880,,196,,Sold,,,https://www.redfin.com/MD/Baltimore/3669-Ash-St-21211/home/10860145,BRIGHT MLS,MDBA2094030,N,Y,39.3313963,-76.6403726
PAST SALE,May-1-2023,Townhouse,1614 Mcculloh St,Baltimore,MD,21217,360000,4,4.5,Ward 14,2885,2400,1920,,125,,Sold,,,https://www.redfin.com/MD/Baltimore/1614-McCulloh-St-21217/home/10880528,BRIGHT MLS,MDBA2066106,N,Y,39.3051221,-76.6313716
PAST SALE,July-25-2023,Single Family Residential,3803 W Overlea Ave,Baltimore,MD,21206,170000,2,1.5,Ward 27,676,7248,1926,,251,,Sold,,,https://www.redfin.com/MD/Baltimore/3803-W-Overlea-Ave-21206/home/11140089,BRIGHT MLS,MDBA2085070,N,Y,39.3585967,-76.5346657
PAST SALE,August-29-2023,Townhouse,2815 Windsor Ave,Baltimore,MD,21216,280000,4,3.5,Ward 15,2244,1980,1918,,125,,Sold,,,https://www.redfin.com/MD/Baltimore/2815-Windsor-Ave-21216/home/10885006,BRIGHT MLS,MDBA2084552,N,Y,39.3122138,-76.6648901
PAST SALE,July-14-2023,Townhouse,2103 Barclay St,Baltimore,MD,21218,110000,3,2.5,Ward 12,1800,,1920,,61,,Sold,,,https://www.redfin.com/MD/Baltimore/2103-Barclay-St-21218/home/10845608,BRIGHT MLS,MDBA2084080,N,Y,39.3136675,-76.6108713
PAST SALE,October-13-2023,Single Family Residential,304 Willow Ave,Baltimore,MD,21206,327218,3,3,WILLOWDALE,2150,4897,1940,,152,,Sold,,,https://www.redfin.com/MD/Baltimore/304-Willow-Ave-21206/home/9401610,BRIGHT MLS,MDBC2077278,N,Y,39.3548007,-76.5223359
PAST SALE,September-21-2023,Townhouse,3323 Hudson St,Baltimore,MD,21224,410000,3,2,Ward 26,1836,,1913,,223,,Sold,,,https://www.redfin.com/MD/Baltimore/3323-Hudson-St-21224/home/11071937,BRIGHT MLS,MDBA2095016,N,Y,39.2823088,-76.568928
PAST SALE,August-25-2023,Single Family Residential,523 Nottingham Rd,Baltimore,MD,21229,545000,5,2.5,Ward 28,2927,17197,1925,,186,,Sold,,,https://www.redfin.com/MD/Baltimore/523-Nottingham-Rd-21229/home/11220493,BRIGHT MLS,MDBA2092680,N,Y,39.2910292,-76.6996712
PAST SALE,October-23-2023,Townhouse,2769 Baker St,Baltimore,MD,21216,127000,2,1.5,Ward 16,1274,,1940,,100,,Sold,,,https://www.redfin.com/MD/Baltimore/2769-Baker-St-21216/home/10945850,BRIGHT MLS,MDBA2098404,N,Y,39.3058519,-76.6634619
PAST SALE,,Townhouse,915 Chestnut Hill Ave,Baltimore,MD,21218,260000,,2,,1760,1700,1939,,148,,,,,https://www.redfin.com/MD/Baltimore/915-Chestnut-Hill-Ave-21218/home/10824297,,,N,Y,39.3338275,-76.6037006
PAST SALE,October-13-2023,Townhouse,214 Denison St,Baltimore,MD,21229,195000,3,1.5,Ward 20,1568,,1951,,124,,Sold,,,https://www.redfin.com/MD/Baltimore/214-Denison-St-21229/home/10988982,BRIGHT MLS,MDBA2093702,N,Y,39.2903371,-76.6751767
PAST SALE,July-11-2023,Townhouse,2230 Eastern Ave,Baltimore,MD,21231,415000,3,2.5,Ward 1,3590,871,1920,,116,,Sold,,,https://www.redfin.com/MD/Baltimore/2230-Eastern-Ave-21231/home/10727573,BRIGHT MLS,MDBA2080158,N,Y,39.2860916,-76.5849098
PAST SALE,May-15-2023,Townhouse,711 William St,Baltimore,MD,21230,335000,2,2,Ward 22,1070,616,1900,,313,,Sold,,,https://www.redfin.com/MD/Baltimore/711-William-St-21230/home/109879001,BRIGHT MLS,MDBA2074004,N,Y,39.2803375,-76.6110456
PAST SALE,July-7-2023,Townhouse,211 Allendale St,Baltimore,MD,21229,105000,3,1,Ward 20,1216,,1936,,86,,Sold,,,https://www.redfin.com/MD/Baltimore/211-Allendale-St-21229/home/10989897,BRIGHT MLS,MDBA2082730,N,Y,39.2905982,-76.6779528
PAST SALE,June-1-2023,Townhouse,2330 E Baltimore St,Baltimore,MD,21224,565000,5,5,Ward 6,3274,,1920,,173,,Sold,,,https://www.redfin.com/MD/Baltimore/2330-E-Baltimore-St-21224/home/10758938,BRIGHT MLS,MDBA2076612,N,Y,39.2921166,-76.5836232
PAST SALE,July-20-2023,Townhouse,1003 Mcdonogh St,Baltimore,MD,21205,355000,2,3.5,Ward 7,2016,871,2016,,176,50,Sold,,,https://www.redfin.com/MD/Baltimore/1003-McDonogh-St-21205/home/108434280,BRIGHT MLS,MDBA2084922,N,Y,39.302327,-76.5933687
PAST SALE,September-29-2023,Single Family Residential,2822 Christopher Ave,Baltimore,MD,21214,350000,5,3.5,Ward 27,2123,6124,1924,,165,,Sold,,,https://www.redfin.com/MD/Baltimore/2822-Christopher-Ave-21214/home/11143378,BRIGHT MLS,MDBA2091370,N,Y,39.3601118,-76.5594572
PAST SALE,July-20-2023,Townhouse,515 Denison St,Baltimore,MD,21229,105000,4,1,Ward 20,1320,,1927,,80,,Sold,,,https://www.redfin.com/MD/Baltimore/515-Denison-St-21229/home/10988203,BRIGHT MLS,MDBA2081446,N,Y,39.2932835,-76.6738763
PAST SALE,October-11-2023,Townhouse,700 N Augusta Ave,Baltimore,MD,21229,250000,4,2,Ward 16,1400,,1939,,179,,Sold,,,https://www.redfin.com/MD/Baltimore/700-N-Augusta-Ave-21229/home/10929426,BRIGHT MLS,MDBA2092532,N,Y,39.2956228,-76.6853275
PAST SALE,July-14-2023,Single Family Residential,5212 Overcrest,Baltimore,MD,21207,355000,4,2.5,Ward 28,1806,6000,1931,,197,,Sold,,,https://www.redfin.com/MD/Baltimore/5212-Overcrest-Rd-21207/home/11217694,BRIGHT MLS,MDBA2082270,N,Y,39.3079913,-76.710225
PAST SALE,October-6-2023,Townhouse,1519 Barclay St,Baltimore,MD,21202,320000,3,3,Ward 12,1922,868,1920,,166,,Sold,,,https://www.redfin.com/MD/Baltimore/1519-Barclay-St-21202/home/10844366,BRIGHT MLS,MDBA2090600,N,Y,39.3073081,-76.610495
PAST SALE,July-7-2023,Single Family Residential,3809 W Cold Spring Ln,Baltimore,MD,21215,340000,4,2.5,Ward 15,1817,6000,1920,,187,,Sold,,,https://www.redfin.com/MD/Baltimore/3809-W-Cold-Spring-Ln-21215/home/10902835,BRIGHT MLS,MDBA2073758,N,Y,39.3350982,-76.6798241
PAST SALE,July-7-2023,Townhouse,509 Collins Ave,Baltimore,MD,21229,155000,3,1.5,Ward 20,1848,,1920,,84,,Sold,,,https://www.redfin.com/MD/Baltimore/509-Collins-Ave-21229/home/10970373,BRIGHT MLS,MDBA2074768,N,Y,39.27773864,-76.68352828
PAST SALE,September-15-2023,Single Family Residential,5314 Elsrode Ave,Baltimore,MD,21214,239900,4,1.5,Ward 27,1339,6246,1937,,179,,Sold,,,https://www.redfin.com/MD/Baltimore/5314-Elsrode-Ave-21214/home/11186257,BRIGHT MLS,MDBA2085690,N,Y,39.3529357,-76.5654624
PAST SALE,May-10-2023,Townhouse,3234 Lake Ave,Baltimore,MD,21213,191000,3,2,Ward 26,1008,,1948,,189,,Sold,,,https://www.redfin.com/MD/Baltimore/3234-Lake-Ave-21213/home/11111927,BRIGHT MLS,MDBA2069728,N,Y,39.3213406,-76.5694241
PAST SALE,September-22-2023,Townhouse,3500 E Baltimore St,Baltimore,MD,21224,194900,3,3,Ward 26,2254,,1900,,86,,Sold,,,https://www.redfin.com/MD/Baltimore/3500-E-Baltimore-St-21224/home/11087206,BRIGHT MLS,MDBA2081084,N,Y,39.2926655,-76.5683069
PAST SALE,August-21-2023,Townhouse,333 S Pulaski St,Baltimore,MD,21223,30000,0,,Ward 20,,,1900,,,,Sold,,,https://www.redfin.com/MD/Baltimore/333-S-Pulaski-St-21223/home/10981148,BRIGHT MLS,MDBA2072336,N,Y,39.2831435,-76.6496224
PAST SALE,October-20-2023,Townhouse,1200 S Bouldin St,Baltimore,MD,21224,545000,3,3.5,Ward 26,2146,1156,2001,,254,150,Sold,,,https://www.redfin.com/MD/Baltimore/1200-S-Bouldin-St-21224/home/11222140,BRIGHT MLS,MDBA2068918,N,Y,39.278979,-76.5704612
PAST SALE,July-24-2023,Townhouse,806 E 22nd St,Baltimore,MD,21218,158000,3,1.5,Ward 9,1400,,1920,,113,,Sold,,,https://www.redfin.com/MD/Baltimore/806-E-22nd-St-21218/home/10809155,BRIGHT MLS,MDBA2056228,N,Y,39.314821,-76.6064643
PAST SALE,,Townhouse,4014 Rosecrest Ave,Baltimore,MD,21215,178000,,1.5,,1714,2575,1949,,104,,,,,https://www.redfin.com/MD/Baltimore/4014-Rosecrest-Ave-21215/home/11182337,,,N,Y,39.3540356,-76.6974504
PAST SALE,,Townhouse,1026 Patapsco St,Baltimore,MD,21230,345000,,1,,1008,610,1900,,342,,,,,https://www.redfin.com/MD/Baltimore/1026-Patapsco-St-21230/home/11009258,,,N,Y,39.2775229,-76.6139114
PAST SALE,May-26-2023,Townhouse,5624 Groveland Ave,Baltimore,MD,21215,168000,2,1.5,Ward 28,1240,4800,1952,,135,,Sold,,,https://www.redfin.com/MD/Baltimore/5624-Groveland-Ave-21215/home/11213942,BRIGHT MLS,MDBA2084086,N,Y,39.3409846,-76.7020668
PAST SALE,,Townhouse,2237 E Preston St,Baltimore,MD,21213,100000,,1,,735,994,1920,,136,,,,,https://www.redfin.com/MD/Baltimore/2237-E-Preston-St-21213/home/10788820,,,N,Y,39.3055485,-76.5860577
PAST SALE,,Single Family Residential,3113 Stafford St,Baltimore,MD,21229,47000,,1,,1084,15109,1920,,43,,,,,https://www.redfin.com/MD/Baltimore/3113-Stafford-St-21229/home/10973071,,,N,Y,39.2792012,-76.6687377
PAST SALE,,Townhouse,3440 Ravenwood Ave,Baltimore,MD,21213,45000,,1,,1096,1264,1925,,41,,,,,https://www.redfin.com/MD/Baltimore/3440-Ravenwood-Ave-21213/home/10802899,,,N,Y,39.3154834,-76.5745402
PAST SALE,,Townhouse,1113 N Montford Ave,Baltimore,MD,21213,135000,,,,,1066,1905,,,,,,,https://www.redfin.com/MD/Baltimore/1113-N-Montford-Ave-21213/home/10797198,,,N,Y,39.3042062,-76.5838058
PAST SALE,,Townhouse,5310 Denmore Ave,Baltimore,MD,21215,50000,,,,,2500,,,,,,,,https://www.redfin.com/MD/Baltimore/5310-Denmore-Ave-21215/home/11173443,,,N,Y,39.3494755,-76.6811435
PAST SALE,,Townhouse,1615 Cole St,Baltimore,MD,21223,115000,,,,,600,1915,,,,,,,https://www.redfin.com/MD/Baltimore/1615-Cole-St-21223/home/10963896,,,N,Y,39.2820623,-76.6425851
PAST SALE,,Single Family Residential,6012 Wallis Ave,Baltimore,MD,21215,623000,7,3.5,,3100,9749,1925,,201,,,,,https://www.redfin.com/MD/Baltimore/6012-Wallis-Ave-21215/home/11177425,,,N,Y,39.3579566,-76.690154
PAST SALE,,Townhouse,2860 W Mulberry St,Baltimore,MD,21223,50000,,1,,1170,945,1925,,43,,,,,https://www.redfin.com/MD/Baltimore/2860-W-Mulberry-St-21223/home/10995854,,,N,Y,39.2927517,-76.6641134
PAST SALE,,Townhouse,307 Wyman Park Dr,Baltimore,MD,21211,340000,,1,,1292,1367,1920,,263,,,,,https://www.redfin.com/MD/Baltimore/307-Wyman-Park-Dr-21211/home/10840630,,,N,Y,39.3254155,-76.6250818
PAST SALE,,Townhouse,426 Elrino St,Baltimore,MD,21224,265000,,2,,1344,1520,1941,,197,,,,,https://www.redfin.com/MD/Baltimore/426-Elrino-St-21224/home/11082385,,,N,Y,39.2883876,-76.5430994
PAST SALE,,Townhouse,3420 Elmora Ave,Baltimore,MD,21213,87500,,1,,896,1264,1925,,98,,,,,https://www.redfin.com/MD/Baltimore/3420-Elmora-Ave-21213/home/10803030,,,N,Y,39.3160738,-76.5751099
PAST SALE,,Townhouse,4738 Frederick Ave,Baltimore,MD,21229,106622,,2,,1428,1932,1930,,75,,,,,https://www.redfin.com/MD/Baltimore/4738-Frederick-Ave-21229/home/11221147,,,N,Y,39.2816527,-76.6945152
PAST SALE,,Single Family Residential,210 Goodale Rd,Baltimore,MD,21212,1070000,5,4,,2818,10937,1928,,380,,,,,https://www.redfin.com/MD/Baltimore/210-Goodale-Rd-21212/home/11211780,,,N,Y,39.3556283,-76.6187881
PAST SALE,,Townhouse,2516 W Fayette St,Baltimore,MD,21223,62500,,,,,980,1915,,,,,,,https://www.redfin.com/MD/Baltimore/2516-W-Fayette-St-21223/home/10975867,,,N,Y,39.2890606,-76.6570829
PAST SALE,,Single Family Residential,307 Broxton Rd,Baltimore,MD,21212,615000,,4,,2644,8228,1930,,233,,,,,https://www.redfin.com/MD/Baltimore/307-Broxton-Rd-21212/home/11152120,,,N,Y,39.3598292,-76.6142163
PAST SALE,,Single Family Residential,4609 Keswick Rd,Baltimore,MD,21210,425000,,2,,1271,6246,1905,,334,,,,,https://www.redfin.com/MD/Baltimore/4609-Keswick-Rd-21210/home/11155694,,,N,Y,39.3470513,-76.6299102
PAST SALE,,Townhouse,5109 Arbutus Ave,Baltimore,MD,21215,87500,,,,,1988,,,,,,,,https://www.redfin.com/MD/Baltimore/5109-Arbutus-Ave-21215/home/11170480,,,N,Y,39.3436115,-76.6812157
PAST SALE,,Townhouse,1032 W Lombard St,Baltimore,MD,21223,135000,,,,,1274,1900,,,,,,,https://www.redfin.com/MD/Baltimore/1032-W-Lombard-St-21223/home/10955116,,,N,Y,39.2868539,-76.6346735
PAST SALE,,Townhouse,3853 Elmora Ave,Baltimore,MD,21213,117300,,1,,1120,1584,1953,,105,,,,,https://www.redfin.com/MD/Baltimore/3853-Elmora-Ave-21213/home/11107040,,,N,Y,39.3162606,-76.5635293
PAST SALE,,Townhouse,3392 Saint Benedict St,Baltimore,MD,21229,92500,,1,,1080,1567,1950,,86,,,,,https://www.redfin.com/MD/Baltimore/3392-Saint-Benedict-St-21229/home/10972502,,,N,Y,39.2739582,-76.6743734
PAST SALE,October-11-2023,Townhouse,2202 W Lexington St,Baltimore,MD,21223,52000,3,1,Ward 20,1380,1000,1930,,38,,Sold,,,https://www.redfin.com/MD/Baltimore/2202-W-Lexington-St-21223/home/10995513,BRIGHT MLS,MDBA2101914,N,Y,39.2906042,-76.6518116
PAST SALE,,Townhouse,1527 Popland St,Curtis Bay,MD,21226,68000,,1,,728,1418,1925,,93,,,,,https://www.redfin.com/MD/Curtis-Bay/1527-Popland-St-21226/home/11058850,,,N,Y,39.2289297,-76.5892922
PAST SALE,,Townhouse,2845 Hinsdale Dr,Baltimore,MD,21230,120000,,1,,1024,3816,1956,,117,,,,,https://www.redfin.com/MD/Baltimore/2845-Hinsdale-Dr-21230/home/11043222,,,N,Y,39.2557901,-76.6447055
PAST SALE,,Townhouse,727 S Curley St,Baltimore,MD,21224,510000,,1,,1224,804,1915,,417,,,,,https://www.redfin.com/MD/Baltimore/727-S-Curley-St-21224/home/10736018,,,N,Y,39.2837409,-76.5747346
PAST SALE,September-14-2023,Townhouse,604 Wildwood Pkwy,Baltimore,MD,21229,115000,5,2.5,Ward 16,1688,2200,1930,,68,,Sold,,,https://www.redfin.com/MD/Baltimore/604-Wildwood-Pkwy-21229/home/10929050,BRIGHT MLS,MDBA2096954,N,Y,39.2943133,-76.6842898
PAST SALE,May-5-2023,Townhouse,1826 Madison Ave,Baltimore,MD,21217,130000,4,3,Ward 14,4135,3135,1920,,31,,Sold,,,https://www.redfin.com/MD/Baltimore/1826-Madison-Ave-21217/home/10880183,BRIGHT MLS,MDBA2084652,N,Y,39.3075353,-76.6327694
PAST SALE,,Townhouse,1910 E Oliver St,Baltimore,MD,21213,58300,,1,,530,910,1905,,110,,,,,https://www.redfin.com/MD/Baltimore/1910-E-Oliver-St-21213/home/10794229,,,N,Y,39.3078037,-76.5907391
PAST SALE,,Townhouse,237 N Monroe St,Baltimore,MD,21223,140000,,,,,1190,1920,,,,,,,https://www.redfin.com/MD/Baltimore/237-N-Monroe-St-21223/home/10987785,,,N,Y,39.2915537,-76.6468781
PAST SALE,July-7-2023,Townhouse,3202 Westerwald Ave,Baltimore,MD,21218,89000,3,1.5,Ward 9,976,1080,1915,,91,,Sold,,,https://www.redfin.com/MD/Baltimore/3202-Westerwald-Ave-21218/home/10805839,BRIGHT MLS,MDBA2090774,N,Y,39.32771,-76.6054939
PAST SALE,,Townhouse,945 Brunswick St,Baltimore,MD,21223,75000,,1,,582,1455,1927,,129,,,,,https://www.redfin.com/MD/Baltimore/945-Brunswick-St-21223/home/10977309,,,N,Y,39.2767196,-76.6576936
PAST SALE,,Townhouse,1215 E Preston St,Baltimore,MD,21202,115000,,,,2100,1170,1900,,55,,,,,https://www.redfin.com/MD/Baltimore/1215-E-Preston-St-21202/home/10829281,,,N,Y,39.3049222,-76.6011897
PAST SALE,,Single Family Residential,527 S Ann St,Baltimore,MD,21231,552000,,1.5,,1844,1880,1855,,299,,,,,https://www.redfin.com/MD/Baltimore/527-S-Ann-St-21231/home/10747665,,,N,Y,39.2849782,-76.5911508
PAST SALE,,Townhouse,100 N Hilton St,Baltimore,MD,21229,100000,,1,,1518,1928,1921,,66,,,,,https://www.redfin.com/MD/Baltimore/100-N-Hilton-St-21229/home/10992357,,,N,Y,39.287067,-76.6726358
PAST SALE,,Townhouse,2409 E Biddle St,Baltimore,MD,21213,50000,,,,,945,1905,,,,,,,https://www.redfin.com/MD/Baltimore/2409-E-Biddle-St-21213/home/10797169,,,N,Y,39.3045616,-76.5837378
PAST SALE,,Townhouse,4503 Furley Ave,Baltimore,MD,21206,126000,,1,,768,2376,1927,,164,,,,,https://www.redfin.com/MD/Baltimore/4503-Furley-Ave-21206/home/11115927,,,N,Y,39.3302356,-76.5552352
PAST SALE,,Townhouse,1421 Harper St,Baltimore,MD,21230,575000,,3,,2252,1002,2007,,255,,,,,https://www.redfin.com/MD/Baltimore/1421-Harper-St-21230/home/11891898,,,N,Y,39.2678347,-76.5882624
PAST SALE,,Other,2127 E North Ave,Baltimore,MD,21213,77314,,,,,1094,,,,,,,,https://www.redfin.com/MD/Baltimore/2127-E-North-Ave-21213/home/10795290,,,N,Y,39.3123163,-76.587828
PAST SALE,,Townhouse,117 S Poppleton St,Baltimore,MD,21201,152000,,1,,1770,1053,1900,,86,,,,,https://www.redfin.com/MD/Baltimore/117-S-Poppleton-St-21201/home/10956794,,,N,Y,39.2864192,-76.6318023
PAST SALE,June-15-2023,Townhouse,2002 Whistler Ave,Baltimore,MD,21230,116000,2,1.5,Ward 25,812,1233,1951,,143,,Sold,,,https://www.redfin.com/MD/Baltimore/2002-Whistler-Ave-21230/home/11038134,BRIGHT MLS,MDBA2087374,N,Y,39.2652907,-76.6516024
PAST SALE,,Single Family Residential,2909 Whitney Ave,Baltimore,MD,21215,335000,,2.5,,1248,7496,1922,,268,,,,,https://www.redfin.com/MD/Baltimore/2909-Whitney-Ave-21215/home/11179561,,,N,Y,39.3576903,-76.6775685
PAST SALE,,Townhouse,1421 Cherry St,Baltimore,MD,21226,185000,,1,,1316,2997,1900,,141,,,,,https://www.redfin.com/MD/Baltimore/1421-Cherry-St-21226/home/11060300,,,N,Y,39.2219434,-76.5903044
PAST SALE,,Townhouse,710 N Gilmor St,Baltimore,MD,21217,84000,,,,2640,1584,1920,,32,,,,,https://www.redfin.com/MD/Baltimore/710-N-Gilmor-St-21217/home/10934673,,,N,Y,39.2968911,-76.6430494
PAST SALE,July-6-2023,Single Family Residential,6706 Cross Country Blvd,Baltimore,MD,21215,480000,5,4,Ward 27,2301,14388,1952,,209,,Sold,,,https://www.redfin.com/MD/Baltimore/6706-Cross-Country-Blvd-21215/home/11175705,BRIGHT MLS,MDBA2092062,N,Y,39.3643313,-76.6986113
PAST SALE,,Townhouse,1427 E Federal St,Baltimore,MD,21213,202000,,,,,923,1920,,,,,,,https://www.redfin.com/MD/Baltimore/1427-E-Federal-St-21213/home/10811601,,,N,Y,39.3082135,-76.59891
PAST SALE,July-31-2023,Single Family Residential,2410 Brambleton Rd,Baltimore,MD,21209,420000,3,2,Ward 27,1733,5754,1931,,242,,Sold,,,https://www.redfin.com/MD/Baltimore/2410-Brambleton-Rd-21209/home/11180082,BRIGHT MLS,MDBA2094076,N,Y,39.36122,-76.6685459
PAST SALE,,Townhouse,1424 Limit Ave,Baltimore,MD,21239,136000,,2,,1440,2838,1963,,94,,,,,https://www.redfin.com/MD/Baltimore/1424-Limit-Ave-21239/home/11205832,,,N,Y,39.3715987,-76.5844132
PAST SALE,,Townhouse,4308 Cedar Garden Rd,Baltimore,MD,21229,150000,,1,,896,1760,1954,,167,,,,,https://www.redfin.com/MD/Baltimore/4308-Cedar-Garden-Rd-21229/home/11027182,,,N,Y,39.2753795,-76.6890567
PAST SALE,,Townhouse,504 S Hanover St,Baltimore,MD,21201,450000,,2.5,,1728,1026,1980,,260,,,,,https://www.redfin.com/MD/Baltimore/504-S-Hanover-St-21201/home/11006454,,,N,Y,39.282984,-76.6161504
PAST SALE,,Townhouse,100 N Lakewood Ave,Baltimore,MD,21224,346250,,2.5,,2462,1088,1900,,141,,,,,https://www.redfin.com/MD/Baltimore/100-N-Lakewood-Ave-21224/home/10760511,,,N,Y,39.2933371,-76.5793036
PAST SALE,,Townhouse,350 Gusryan St,Baltimore,MD,21224,167000,,1,,840,1330,1948,,199,,,,,https://www.redfin.com/MD/Baltimore/350-Gusryan-St-21224/home/11082808,,,N,Y,39.289485,-76.5412479
PAST SALE,,Townhouse,3227 Phelps Ln,Baltimore,MD,21229,56864,,1,,1270,6161,1929,,45,,,,,https://www.redfin.com/MD/Baltimore/3227-Phelps-Ln-21229/home/10993332,,,N,Y,39.2867107,-76.6715977
PAST SALE,,Townhouse,7738 Wynbrook Rd,Baltimore,MD,21224,135000,,1,,1120,1632,1952,,121,,,,,https://www.redfin.com/MD/Baltimore/7738-Wynbrook-Rd-21224/home/9458783,,,N,Y,39.29636,-76.5185039
PAST SALE,,Townhouse,223 S Calhoun St,Baltimore,MD,21223,33500,,,,,800,1900,,,,,,,https://www.redfin.com/MD/Baltimore/223-S-Calhoun-St-21223/home/10964390,,,N,Y,39.2850483,-76.6391616
PAST SALE,,Townhouse,518 Brunswick St,Baltimore,MD,21223,100000,,1,,546,910,1920,,183,,,,,https://www.redfin.com/MD/Baltimore/518-Brunswick-St-21223/home/11885526,,,N,Y,39.2787603,-76.6592952
PAST SALE,,Townhouse,835 Pontiac Ave,Baltimore,MD,21225,90000,,1,,960,1360,1925,,94,,,,,https://www.redfin.com/MD/Baltimore/835-Pontiac-Ave-21225/home/11051942,,,N,Y,39.233896,-76.5988273
PAST SALE,,Townhouse,46 N Bentalou St,Baltimore,MD,21223,132500,,,,,945,1920,,,,,,,https://www.redfin.com/MD/Baltimore/46-N-Bentalou-St-21223/home/10985955,,,N,Y,39.2890498,-76.653138
PAST SALE,,Townhouse,1228 Woodbourne Ave,Baltimore,MD,21239,150000,,1.5,,1330,2337,1951,,113,,,,,https://www.redfin.com/MD/Baltimore/1228-Woodbourne-Ave-21239/home/11150987,,,N,Y,39.3541905,-76.596759
PAST SALE,September-29-2023,Townhouse,5632 Alhambra Ave,Baltimore,MD,21212,138750,3,1,Ward 27,1554,16,1949,,89,,Sold,,,https://www.redfin.com/MD/Baltimore/5632-Alhambra-Ave-21212/home/11198236,BRIGHT MLS,MDBA2098220,N,Y,39.3591306,-76.6059068
PAST SALE,,Townhouse,6 N Highland Ave,Baltimore,MD,21224,60000,,1,,1410,1050,1900,,43,,,,,https://www.redfin.com/MD/Baltimore/6-N-Highland-Ave-21224/home/11087375,,,N,Y,39.2929375,-76.5696952
PAST SALE,June-26-2023,Townhouse,3400 Dillon St,Baltimore,MD,21224,650000,3,3,Ward 26,1760,1306,1920,,369,,Sold,,,https://www.redfin.com/MD/Baltimore/3400-Dillon-St-21224/home/11072367,BRIGHT MLS,MDBA2090476,N,Y,39.2816526,-76.5685763
PAST SALE,,Townhouse,809 Stoll St,Baltimore,MD,21225,140000,,2,,1116,1800,1942,,125,,,,,https://www.redfin.com/MD/Baltimore/809-Stoll-St-21225/home/11887104,,,N,Y,39.2307672,-76.6008082
PAST SALE,,Townhouse,38 E Barney St,Baltimore,MD,21230,190000,,1,,1573,1025,1875,,121,,,,,https://www.redfin.com/MD/Baltimore/38-E-Barney-St-21230/home/11013647,,,N,Y,39.2696674,-76.612332
PAST SALE,,Townhouse,4201 Grace Ct,Curtis Bay,MD,21226,125000,,1,,832,987,1920,,150,,,,,https://www.redfin.com/MD/Curtis-Bay/4201-Grace-Ct-21226/home/11057337,,,N,Y,39.2275412,-76.587431
PAST SALE,,Townhouse,235 S East Ave,Baltimore,MD,21224,395000,,2.5,,1970,1018,1900,,201,,,,,https://www.redfin.com/MD/Baltimore/235-S-East-Ave-21224/home/11076481,,,N,Y,39.2893469,-76.5715238
PAST SALE,,Townhouse,521 N Bouldin St,Baltimore,MD,21205,55000,,1,,920,1085,1924,,60,,,,,https://www.redfin.com/MD/Baltimore/521-N-Bouldin-St-21205/home/11090307,,,N,Y,39.2976665,-76.5712355
PAST SALE,,Townhouse,2200 Mount Holly St,Baltimore,MD,21216,100000,,1,,2392,3300,1920,,42,,,,,https://www.redfin.com/MD/Baltimore/2200-Mount-Holly-St-21216/home/10883831,,,N,Y,39.3124774,-76.6822702
PAST SALE,,Townhouse,912 McKean Ave,Baltimore,MD,21217,100000,,,,,1006,1920,,,,,,,https://www.redfin.com/MD/Baltimore/912-McKean-Ave-21217/home/10927397,,,N,Y,39.2993593,-76.6469234
PAST SALE,,Other,3529 Hickory Ave,Baltimore,MD,21211,100000,,,,,1260,,,,,,,,https://www.redfin.com/MD/Baltimore/3529-Hickory-Ave-21211/home/10871046,,,N,Y,39.3305065,-76.633487
PAST SALE,May-1-2023,Townhouse,519 S Wolfe St,Baltimore,MD,21231,350000,3,1,Ward 2,1360,,1920,,257,,Sold,,,https://www.redfin.com/MD/Baltimore/519-S-Wolfe-St-21231/home/10746555,BRIGHT MLS,MDBA2079178,N,Y,39.285053,-76.5898304
PAST SALE,,Townhouse,3220 Kingsley St,Baltimore,MD,21229,80000,,1,,1064,1260,1940,,75,,,,,https://www.redfin.com/MD/Baltimore/3220-Kingsley-St-21229/home/10973252,,,N,Y,39.2789508,-76.6704047
PAST SALE,,Townhouse,2902 McElderry St,Baltimore,MD,21205,75000,,1,,1212,906,1915,,62,,,,,https://www.redfin.com/MD/Baltimore/2902-McElderry-St-21205/home/10774267,,,N,Y,39.2981461,-76.5764067
PAST SALE,August-21-2023,Townhouse,1229 W Cross St W,Baltimore,MD,21230,125000,2,1,Ward 21,912,960,1898,,137,,Sold,,,https://www.redfin.com/MD/Baltimore/1229-W-Cross-St-21230/home/10997735,BRIGHT MLS,MDBA2096402,N,Y,39.2824454,-76.6321496
PAST SALE,,Townhouse,1317 Cambria St,Baltimore,MD,21225,57500,,1,,896,2062,1926,,64,,,,,https://www.redfin.com/MD/Baltimore/1317-Cambria-St-21225/home/25812439,,,N,Y,39.2324777,-76.5921399
PAST SALE,June-2-2023,Townhouse,3944 Hickory Ave,Baltimore,MD,21211,234000,3,1,Ward 13,1064,1386,1928,,220,,Sold,,,https://www.redfin.com/MD/Baltimore/3944-Hickory-Ave-21211/home/10859142,BRIGHT MLS,MDBA2088188,N,Y,39.3363077,-76.63552
PAST SALE,July-18-2023,Townhouse,1520 Cuba St,Baltimore,MD,21230,675000,3,3.5,Ward 24,1830,871,2018,,369,80,Sold,,,https://www.redfin.com/MD/Baltimore/1520-Cuba-St-21230/home/144899004,BRIGHT MLS,MDBA2088512,N,Y,39.2719379,-76.5909815
PAST SALE,July-28-2023,Townhouse,2334 W Baltimore St,Baltimore,MD,21223,52395,3,1,Ward 20,1176,,1915,,45,,Sold,,,https://www.redfin.com/MD/Baltimore/2334-W-Baltimore-St-21223/home/10975738,BRIGHT MLS,MDBA2093932,N,Y,39.2879904,-76.6545099
PAST SALE,,Townhouse,3106 Chesterfield Ave,Baltimore,MD,21213,75000,,1,,1038,1348,1928,,72,,,,,https://www.redfin.com/MD/Baltimore/3106-Chesterfield-Ave-21213/home/11111595,,,N,Y,39.3237676,-76.5680247
PAST SALE,,Townhouse,3924 8th St,Baltimore,MD,21225,79750,,2,,1088,1600,1942,,73,,,,,https://www.redfin.com/MD/Baltimore/3924-8th-St-21225/home/11051721,,,N,Y,39.2318699,-76.6016718
PAST SALE,,Townhouse,2705 Woodland Ave,Baltimore,MD,21215,51800,,1,,1024,2985,1942,,51,,,,,https://www.redfin.com/MD/Baltimore/2705-Woodland-Ave-21215/home/11166858,,,N,Y,39.3464984,-76.6621786
PAST SALE,,Townhouse,127 N Ellwood Ave,Baltimore,MD,21224,107500,,1.5,,1226,1226,1900,,88,,,,,https://www.redfin.com/MD/Baltimore/127-N-Ellwood-Ave-21224/home/10763608,,,N,Y,39.2940374,-76.5733072
PAST SALE,May-25-2023,Townhouse,3200 Saint Ambrose Ave,Baltimore,MD,21215,75000,3,1.5,Ward 27,,,1900,,,,Sold,,,https://www.redfin.com/MD/Baltimore/3200-Saint-Ambrose-Ave-21215/home/11170349,BRIGHT MLS,MDBA2087014,N,Y,39.3425138,-76.6702024
PAST SALE,,Townhouse,2028 Griffis Ave,Baltimore,MD,21230,108000,,1,,1242,2092,1940,,87,,,,,https://www.redfin.com/MD/Baltimore/2028-Griffis-Ave-21230/home/11037457,,,N,Y,39.2665084,-76.6492996
PAST SALE,,Townhouse,1108 N Bond St,Baltimore,MD,21213,100000,,2,,534,998,1920,,187,,,,,https://www.redfin.com/MD/Baltimore/1108-N-Bond-St-21213/home/10785646,,,N,Y,39.3036363,-76.5967426
PAST SALE,,Townhouse,3019 Lorena Ave,Baltimore,MD,21230,89000,,1,,1024,2981,1958,,87,,,,,https://www.redfin.com/MD/Baltimore/3019-Lorena-Ave-21230/home/11041061,,,N,Y,39.2557838,-76.6526308
PAST SALE,June-7-2023,Townhouse,15 N Port St,Baltimore,MD,21224,265000,2,1.5,Ward 6,1164,826,1920,,228,,Sold,,,https://www.redfin.com/MD/Baltimore/15-N-Port-St-21224/home/10759655,BRIGHT MLS,MDBA2082858,N,Y,39.2925254,-76.5825016
PAST SALE,,Single Family Residential,613 Orpington Rd,Baltimore,MD,21229,427000,,3,,2322,5450,1924,,184,,,,,https://www.redfin.com/MD/Baltimore/613-Orpington-Rd-21229/home/9145640,,,N,Y,39.2875359,-76.7125251
PAST SALE,,Townhouse,255 S Robinson St,Baltimore,MD,21224,272000,,1.5,,1317,775,1906,,207,,,,,https://www.redfin.com/MD/Baltimore/255-S-Robinson-St-21224/home/10741331,,,N,Y,39.2890378,-76.5722975
PAST SALE,July-3-2023,Single Family Residential,205 Ellwood Ave,Baltimore,MD,21224,51000,2,1,Ward 6,1080,1,1920,,47,,Sold,,,https://www.redfin.com/MD/Baltimore/205-S-Ellwood-Ave-21224/home/10741056,BRIGHT MLS,MDBA2092620,N,Y,39.2898586,-76.5729961
PAST SALE,May-9-2023,Townhouse,627 S Fagley St,Baltimore,MD,21224,309000,3,2,Ward 26,1232,,1920,,251,,Sold,,,https://www.redfin.com/MD/Baltimore/627-Fagley-St-21224/home/11073714,BRIGHT MLS,MDBA2090726,N,Y,39.2851998,-76.5640443
PAST SALE,,Townhouse,1614 S Ellamont St,Baltimore,MD,21230,104000,,1,,1280,1584,1955,,81,,,,,https://www.redfin.com/MD/Baltimore/1614-S-Ellamont-St-21230/home/11034742,,,N,Y,39.2615939,-76.6627872
PAST SALE,,Townhouse,400 Cambria St,Baltimore,MD,21225,45000,,1,,1008,600,1900,,45,,,,,https://www.redfin.com/MD/Baltimore/400-Cambria-St-21225/home/11050160,,,N,Y,39.2367179,-76.6053452
PAST SALE,,Townhouse,913 N Belnord Ave,Baltimore,MD,21205,161000,,1,,520,835,1938,,310,,,,,https://www.redfin.com/MD/Baltimore/913-N-Belnord-Ave-21205/home/10775574,,,N,Y,39.3016715,-76.5787873
PAST SALE,,Townhouse,2014 Harman Ave,Baltimore,MD,21230,65000,,1,,1015,1232,1950,,64,,,,,https://www.redfin.com/MD/Baltimore/2014-Harman-Ave-21230/home/11037977,,,N,Y,39.2656572,-76.6507883
PAST SALE,,Townhouse,1440 Covington St,Baltimore,MD,21230,299999,,1,,1080,1250,1900,,278,,,,,https://www.redfin.com/MD/Baltimore/1440-Covington-St-21230/home/11019169,,,N,Y,39.273502,-76.6069383
PAST SALE,September-23-2023,Townhouse,2504 Mcculloh St,Baltimore,MD,21217,60000,4,3,Ward 13,1467,,1910,,41,,Sold,,,https://www.redfin.com/MD/Baltimore/2504-McCulloh-St-21217/home/10865694,BRIGHT MLS,MDBA2100432,N,Y,39.3129308,-76.6397934
PAST SALE,,Townhouse,1500 Rutland Ave,Baltimore,MD,21213,52500,,1,,504,780,1910,,104,,,,,https://www.redfin.com/MD/Baltimore/1500-Rutland-Ave-21213/home/10784330,,,N,Y,39.3078831,-76.5929609
PAST SALE,,Townhouse,328 S Calhoun St,Baltimore,MD,21223,59000,,,,,936,1900,,,,,,,https://www.redfin.com/MD/Baltimore/328-S-Calhoun-St-21223/home/10964624,,,N,Y,39.2839034,-76.6394836
PAST SALE,October-16-2023,Townhouse,1602 Shakespeare St,Baltimore,MD,21231,639000,4,3,Ward 2,2100,1045,1778,,304,,Sold,,,https://www.redfin.com/MD/Baltimore/1602-Shakespeare-St-21231/home/10745143,BRIGHT MLS,MDBA2096944,N,Y,39.2821726,-76.5947621
PAST SALE,May-18-2023,Townhouse,1116 S Bouldin St,Baltimore,MD,21224,325000,2,1.5,Ward 26,1604,600,1920,,203,,Sold,,,https://www.redfin.com/MD/Baltimore/1116-S-Bouldin-St-21224/home/11070727,BRIGHT MLS,MDBA2086860,N,Y,39.2797178,-76.5704402
PAST SALE,August-25-2023,Townhouse,229 S East Ave,Baltimore,MD,21224,430000,3,2,Ward 26,1436,1018,1900,,299,,Sold,,,https://www.redfin.com/MD/Baltimore/229-S-East-Ave-21224/home/11076472,BRIGHT MLS,MDBA2096950,N,Y,39.2894664,-76.5715238
PAST SALE,June-2-2023,Townhouse,2906 Hudson St,Baltimore,MD,21224,352500,3,2.5,Ward 1,1620,,1920,,218,,Sold,,,https://www.redfin.com/MD/Baltimore/2906-Hudson-St-21224/home/10736403,BRIGHT MLS,MDBA2087966,N,Y,39.2823635,-76.5753375
PAST SALE,,Townhouse,3716 Gelston Dr,Baltimore,MD,21229,95000,,2,,1458,1528,1932,,65,,,,,https://www.redfin.com/MD/Baltimore/3716-Gelston-Dr-21229/home/10938289,,,N,Y,39.2958195,-76.6793756
PAST SALE,,Townhouse,216 N Milton Ave,Baltimore,MD,21224,315000,,3.5,,1749,1050,1880,,180,,,,,https://www.redfin.com/MD/Baltimore/216-N-Milton-Ave-21224/home/10755838,,,N,Y,39.2950115,-76.5823032
PAST SALE,,Townhouse,1023 Hollins St,Baltimore,MD,21223,120067,,,,,972,1900,,,,,,,https://www.redfin.com/MD/Baltimore/1023-Hollins-St-21223/home/10955036,,,N,Y,39.2875882,-76.6344284
PAST SALE,June-15-2023,Townhouse,3381 Dulany St,Baltimore,MD,21229,140000,3,2,Ward 20,1080,,1950,,130,,Sold,,,https://www.redfin.com/MD/Baltimore/3381-Dulany-St-21229/home/10972543,BRIGHT MLS,MDBA2084070,N,Y,39.2744368,-76.674219
PAST SALE,,Townhouse,1255 Sargeant St,Baltimore,MD,21223,150000,,1,,816,700,1898,,184,,,,,https://www.redfin.com/MD/Baltimore/1255-Sargeant-St-21223/home/10999226,,,N,Y,39.2813735,-76.6351982
PAST SALE,October-19-2023,Single Family Residential,1707 Wickes Ave,Baltimore,MD,21230,246000,3,2,Ward 25,1628,6000,1926,,151,,Sold,,,https://www.redfin.com/MD/Baltimore/1707-Wickes-Ave-21230/home/11034917,BRIGHT MLS,MDBA2098924,N,Y,39.2651998,-76.6567254
PAST SALE,,Single Family Residential,3804 N Rogers Ave,Gwynn Oak,MD,21207,188597,,1.5,,1650,5645,1957,,114,,,,,https://www.redfin.com/MD/Gwynn-Oak/3804-N-Rogers-Ave-21207/home/11215251,,,N,Y,39.3367182,-76.7023774
PAST SALE,,Townhouse,2911 E Monument St,Baltimore,MD,21205,210000,,1,,1144,896,1915,,184,,,,,https://www.redfin.com/MD/Baltimore/2911-E-Monument-St-21205/home/10774143,,,N,Y,39.2989257,-76.5762228
PAST SALE,,Townhouse,405 Anglesea St,Baltimore,MD,21224,85000,,1,,1364,1542,1926,,62,,,,,https://www.redfin.com/MD/Baltimore/405-Anglesea-St-21224/home/11081875,,,N,Y,39.2887061,-76.5464748
PAST SALE,,Townhouse,4913 Edgemere Ave,Baltimore,MD,21215,50000,,,,,2376,,,,,,,,https://www.redfin.com/MD/Baltimore/4913-Edgemere-Ave-21215/home/11171778,,,N,Y,39.3449015,-76.6736991
PAST SALE,July-18-2023,Single Family Residential,3613 Hickory Ave,Baltimore,MD,21211,515000,3,2.5,Ward 13,2350,3948,1880,,219,,Sold,,,https://www.redfin.com/MD/Baltimore/3613-Hickory-Ave-21211/home/10858348,BRIGHT MLS,MDBA2092930,N,Y,39.3317782,-76.6337495
PAST SALE,,Townhouse,6957 Blanche Rd,Baltimore,MD,21215,215000,,1.5,,1350,2466,1965,,159,,,,,https://www.redfin.com/MD/Baltimore/6957-Blanche-Rd-21215/home/9530909,,,N,Y,39.359214,-76.7143521
PAST SALE,,Townhouse,2533 Southdene Ave,Baltimore,MD,21230,79500,,1.5,,1120,1600,1958,,71,,,,,https://www.redfin.com/MD/Baltimore/2533-Southdene-Ave-21230/home/11040629,,,N,Y,39.2546793,-76.6486512
PAST SALE,,Townhouse,613 Lucia Ave,Baltimore,MD,21229,155000,,1,,1120,1600,1955,,138,,,,,https://www.redfin.com/MD/Baltimore/613-Lucia-Ave-21229/home/11027589,,,N,Y,39.2735663,-76.6918615
PAST SALE,,Single Family Residential,6014 Sefton Ave,Baltimore,MD,21214,220000,,1,,1238,5950,1927,,178,,,,,https://www.redfin.com/MD/Baltimore/6014-Sefton-Ave-21214/home/11130754,,,N,Y,39.3561851,-76.5514196
PAST SALE,July-11-2023,Single Family Residential,3600 Hineline Rd,Baltimore,MD,21229,65000,2,1,Ward 25,1468,,1920,,44,,Sold,,,https://www.redfin.com/MD/Baltimore/3600-Hineline-Rd-21229/home/11029068,BRIGHT MLS,MDBA2092270,N,Y,39.2677477,-76.6773768
PAST SALE,,Townhouse,5431 Whitlock Rd,Baltimore,MD,21229,170000,,1.5,,1458,1800,1951,,117,,,,,https://www.redfin.com/MD/Baltimore/5431-Whitlock-Rd-21229/home/9079222,,,N,Y,39.2919619,-76.7175341
PAST SALE,,Single Family Residential,109 W Lake Ave,Baltimore,MD,21210,710000,,2.5,,2748,11443,1959,,258,,,,,https://www.redfin.com/MD/Baltimore/109-W-Lake-Ave-21210/home/11161275,,,N,Y,39.3682117,-76.6297866
PAST SALE,,Townhouse,601 N East Ave,Baltimore,MD,21205,47000,,1,,1164,1237,1924,,40,,,,,https://www.redfin.com/MD/Baltimore/601-N-East-Ave-21205/home/11089834,,,N,Y,39.2985072,-76.5720533
PAST SALE,,Townhouse,3014 Presstman St,Baltimore,MD,21216,144800,,1,,1400,1784,1918,,103,,,,,https://www.redfin.com/MD/Baltimore/3014-Presstman-St-21216/home/10942122,,,N,Y,39.3047082,-76.6680428
PAST SALE,,Townhouse,2233 E Madison St,Baltimore,MD,21205,135000,,,,672,1050,1920,,201,,,,,https://www.redfin.com/MD/Baltimore/2233-E-Madison-St-21205/home/23462296,,,N,Y,39.2996105,-76.5856502
PAST SALE,,Townhouse,3125 McElderry St,Baltimore,MD,21205,58000,,1,,1260,1008,1915,,46,,,,,https://www.redfin.com/MD/Baltimore/3125-McElderry-St-21205/home/10775181,,,N,Y,39.2979198,-76.5727554
PAST SALE,,Townhouse,4609 Wilkens Ave,Baltimore,MD,21229,75000,,2,,1312,3150,1940,,57,,,,,https://www.redfin.com/MD/Baltimore/4609-Wilkens-Ave-21229/home/9382841,,,N,Y,39.2647107,-76.6982083
PAST SALE,August-9-2023,Townhouse,811 Chauncey Ave,Baltimore,MD,21217,180000,3,1.5,Ward 13,1600,1680,1916,,113,,Sold,,,https://www.redfin.com/MD/Baltimore/811-Chauncey-Ave-21217/home/10867579,BRIGHT MLS,MDBA2093632,N,Y,39.3149679,-76.6348215
PAST SALE,August-28-2023,Townhouse,2017 Griffis Ave,Baltimore,MD,21230,120000,2,1,Ward 25,1020,1155,1939,,118,,Sold,,,https://www.redfin.com/MD/Baltimore/2017-Griffis-Ave-21230/home/11037353,BRIGHT MLS,MDBA2097236,N,Y,39.2669322,-76.6492346
PAST SALE,,Townhouse,1010 Dartmouth Rd,Baltimore,MD,21212,161537,,2.5,,1580,3072,1948,,102,,,,,https://www.redfin.com/MD/Baltimore/1010-Dartmouth-Rd-21212/home/11201286,,,N,Y,39.3665274,-76.6014141
PAST SALE,,Townhouse,1231 Darley Ave,Baltimore,MD,21218,155000,,,,,1120,1920,,,,,,,https://www.redfin.com/MD/Baltimore/1231-Darley-Ave-21218/home/10813217,,,N,Y,39.3155788,-76.5983127
PAST SALE,,Townhouse,611 E 30th St,Baltimore,MD,21218,45000,,,,,986,,,,,,,,https://www.redfin.com/MD/Baltimore/611-E-30th-St-21218/home/10808126,,,N,Y,39.3241492,-76.6080664
PAST SALE,July-31-2023,Townhouse,1604 Forest Hill Ave,Baltimore,MD,21230,108000,2,1,Ward 25,840,,1953,,129,,Sold,,,https://www.redfin.com/MD/Baltimore/1604-Forest-Hill-Ave-21230/home/11034504,BRIGHT MLS,MDBA2091656,N,Y,39.2637822,-76.6610556
PAST SALE,October-16-2023,Townhouse,1523 Ralworth Rd,Baltimore,MD,21218,245000,3,2,Ward 9,1428,2581,1939,,172,,Sold,,,https://www.redfin.com/MD/Baltimore/1523-Ralworth-Rd-21218/home/10826937,BRIGHT MLS,MDBA2091174,N,Y,39.3390756,-76.5923077
PAST SALE,,Single Family Residential,3221 Glendale Ave,Parkville,MD,21234,210000,,2,,781,7497,1940,,269,,,,,https://www.redfin.com/MD/Parkville/3221-Glendale-Ave-21234/home/11136518,,,N,Y,39.3677775,-76.5404463
PAST SALE,August-10-2023,Townhouse,634 N Streeper St,Baltimore,MD,21205,40000,3,1,Ward 7,,829,1911,,,,Sold,,,https://www.redfin.com/MD/Baltimore/634-N-Streeper-St-21205/home/10773293,BRIGHT MLS,MDBA2094956,N,Y,39.2985974,-76.5775373
PAST SALE,,Townhouse,2514 McElderry St,Baltimore,MD,21205,69000,,1,,572,910,1920,,121,,,,,https://www.redfin.com/MD/Baltimore/2514-McElderry-St-21205/home/11839116,,,N,Y,39.2979317,-76.581397
PAST SALE,,Townhouse,1942 Mosher St,Baltimore,MD,21217,222000,,,,,1120,1920,,,,,,,https://www.redfin.com/MD/Baltimore/1942-Mosher-St-21217/home/10927990,,,N,Y,39.2999392,-76.6490129
PAST SALE,September-27-2023,Townhouse,159 W Lanvale St W #3,Baltimore,MD,21217,251750,2,1.5,Ward 11,1333,,1876,,189,330,Sold,,,https://www.redfin.com/MD/Baltimore/159-W-Lanvale-St-21217/unit-3/home/10832649,BRIGHT MLS,MDBA2100948,N,Y,39.3060435,-76.6227763
PAST SALE,,Townhouse,1630 N Milton Ave,Baltimore,MD,21213,79900,,1,,630,974,1920,,127,,,,,https://www.redfin.com/MD/Baltimore/1630-N-Milton-Ave-21213/home/10796959,,,N,Y,39.3096884,-76.5831649
PAST SALE,,Townhouse,822 E Jeffrey St,Baltimore,MD,21225,70000,,2,,1116,2088,1943,,63,,,,,https://www.redfin.com/MD/Baltimore/822-E-Jeffrey-St-21225/home/11052575,,,N,Y,39.2323328,-76.5997316
PAST SALE,,Townhouse,2420 E Madison St,Baltimore,MD,21205,80000,,1,,846,910,1920,,95,,,,,https://www.redfin.com/MD/Baltimore/2420-E-Madison-St-21205/home/10764796,,,N,Y,39.300066,-76.582788
PAST SALE,October-12-2023,Townhouse,1317 W 42nd St,Baltimore,MD,21211,120000,3,1,Ward 13,1192,,1922,,101,,Sold,,,https://www.redfin.com/MD/Baltimore/1317-W-42nd-St-21211/home/10873685,BRIGHT MLS,MDBA2098264,N,Y,39.3383333,-76.6397483
PAST SALE,,Single Family Residential,3026 Fleetwood Ave,Baltimore,MD,21214,175000,,1.5,,1428,12031,1929,,123,,,,,https://www.redfin.com/MD/Baltimore/3026-Fleetwood-Ave-21214/home/11141812,,,N,Y,39.3616187,-76.5495682
PAST SALE,August-11-2023,Townhouse,810 Harlem Ave,Baltimore,MD,21201,299999,3,2.5,Ward 17,1962,,1915,,153,,Sold,,,https://www.redfin.com/MD/Baltimore/810-Harlem-Ave-21201/home/10951526,BRIGHT MLS,MDBA2014576,N,Y,39.2971016,-76.6312442
PAST SALE,,Townhouse,3923 Dudley Ave,Baltimore,MD,21213,114750,,1,,896,1920,1953,,128,,,,,https://www.redfin.com/MD/Baltimore/3923-Dudley-Ave-21213/home/11107480,,,N,Y,39.3170565,-76.5610288
PAST SALE,,Townhouse,2416 E Lafayette Ave,Baltimore,MD,21213,55000,3,1.5,,1200,871,1915,,46,,,,,https://www.redfin.com/MD/Baltimore/2416-E-Lafayette-Ave-21213/home/10795725,,,N,Y,39.3112599,-76.583908
PAST SALE,,Townhouse,807 Whitelock St,Baltimore,MD,21217,110000,,1,,2730,2205,1921,,40,,,,,https://www.redfin.com/MD/Baltimore/807-Whitelock-St-21217/home/10867394,,,N,Y,39.3141949,-76.6321666
PAST SALE,October-18-2023,Townhouse,4105 Raymonn Ave,Baltimore,MD,21213,135000,3,1.5,Ward 26,1200,1120,1954,,113,,Sold,,,https://www.redfin.com/MD/Baltimore/4105-Raymonn-Ave-21213/home/11104690,BRIGHT MLS,MDBA2102802,N,Y,39.3169896,-76.558091
PAST SALE,,Townhouse,1826 Riggs Ave,Baltimore,MD,21217,86038,,,,,1200,1920,,,,,,,https://www.redfin.com/MD/Baltimore/1826-Riggs-Ave-21217/home/11873867,,,N,Y,39.3010733,-76.6473045
PAST SALE,,Townhouse,2338 Reisterstown Rd,Baltimore,MD,21217,68000,,1,,1390,2000,1927,,49,,,,,https://www.redfin.com/MD/Baltimore/2338-Reisterstown-Rd-21217/home/10900689,,,N,Y,39.3153827,-76.6492964
PAST SALE,,Townhouse,719 S Rose St,Baltimore,MD,21224,139000,,1.5,,882,900,1900,,158,,,,,https://www.redfin.com/MD/Baltimore/719-S-Rose-St-21224/home/10731498,,,N,Y,39.2834542,-76.5803754
PAST SALE,October-2-2023,Townhouse,716 E Lake Ave,Baltimore,MD,21212,355000,3,1,Ward 27,1553,,1930,,229,,Sold,,,https://www.redfin.com/MD/Baltimore/716-E-Lake-Ave-21212/home/11200218,BRIGHT MLS,MDBA2100770,N,Y,39.3671716,-76.6065433
PAST SALE,,Townhouse,3815 Saint Victor St,Baltimore,MD,21225,65000,,1.5,,1114,1303,1943,,58,,,,,https://www.redfin.com/MD/Baltimore/3815-Saint-Victor-St-21225/home/11055112,,,N,Y,39.2320897,-76.5976012
PAST SALE,,Townhouse,525 N Highland Ave,Baltimore,MD,21205,50000,,1,,1389,1142,1924,,36,,,,,https://www.redfin.com/MD/Baltimore/525-N-Highland-Ave-21205/home/11091175,,,N,Y,39.2978008,-76.5695215
PAST SALE,,Townhouse,2003 N Pulaski St,Baltimore,MD,21217,95000,,,,,910,1920,,,,,,,https://www.redfin.com/MD/Baltimore/2003-N-Pulaski-St-21217/home/10898269,,,N,Y,39.3111219,-76.6511653
PAST SALE,,Townhouse,730 N Edgewood St,Baltimore,MD,21229,140000,,1,,1360,1640,1925,,103,,,,,https://www.redfin.com/MD/Baltimore/730-N-Edgewood-St-21229/home/10940070,,,N,Y,39.296107,-76.6747941
PAST SALE,May-31-2023,Townhouse,2572 Edmondson Ave,Baltimore,MD,21223,190000,3,1.5,Ward 16,1230,,1925,,154,,Sold,,,https://www.redfin.com/MD/Baltimore/2572-Edmondson-Ave-21223/home/10932518,BRIGHT MLS,MDBA2084490,N,Y,39.2948589,-76.6586777
PAST SALE,,Townhouse,927 Brunswick St,Baltimore,MD,21223,50000,,1,,582,1455,1927,,86,,,,,https://www.redfin.com/MD/Baltimore/927-Brunswick-St-21223/home/10977282,,,N,Y,39.2771654,-76.6579227
PAST SALE,,Single Family Residential,3704 W Bay Ave,Baltimore,MD,21225,71000,,1,,995,4996,1925,,71,,,,,https://www.redfin.com/MD/Baltimore/3704-W-Bay-Ave-21225/home/11055554,,,N,Y,39.2329427,-76.5947621
PAST SALE,September-29-2023,Townhouse,712 N Arlington Ave,Baltimore,MD,21217,19000,3,2,Ward 16,752,,1920,,25,,Sold,,,https://www.redfin.com/MD/Baltimore/712-N-Arlington-Ave-21217/home/11879207,BRIGHT MLS,MDBA2087424,N,Y,39.2971649,-76.6359513
PAST SALE,,Townhouse,1918 Parksley Ave,Baltimore,MD,21230,75000,,1,,928,3382,1927,,81,,,,,https://www.redfin.com/MD/Baltimore/1918-Parksley-Ave-21230/home/11036454,,,N,Y,39.2649496,-76.653066
PAST SALE,,Townhouse,1728 N Smallwood St,Baltimore,MD,21216,145000,,,,,1435,1920,,,,,,,https://www.redfin.com/MD/Baltimore/1728-N-Smallwood-St-21216/home/10922844,,,N,Y,39.3083283,-76.6527887
PAST SALE,June-15-2023,Townhouse,2615 Lighthouse Ln,Baltimore,MD,21224,659000,2,2.5,Ward 1,2080,1220,2005,,317,300,Sold,,,https://www.redfin.com/MD/Baltimore/2615-Lighthouse-Ln-21224/home/11891660,BRIGHT MLS,MDBA2089780,N,Y,39.2782239,-76.5792176
PAST SALE,August-31-2023,Townhouse,4210 Laplata Ave,Baltimore,MD,21211,364990,3,2.5,Ward 13,1767,2396,2022,,207,60,Sold,,,https://www.redfin.com/MD/Baltimore/4210-Laplata-Ave-21211/home/171243844,BRIGHT MLS,MDBA2099802,N,Y,39.3387641,-76.6447088
PAST SALE,May-8-2023,Single Family Residential,2313 Whitley Rd,Baltimore,MD,21209,895000,6,5.5,Ward 27,3460,10324,2009,,259,100,Sold,,,https://www.redfin.com/MD/Baltimore/2313-Whitley-Rd-21209/home/28546544,BRIGHT MLS,MDBA2083102,N,Y,39.3708338,-76.6704787
PAST SALE,,Townhouse,2423 Calverton Heights Ave,Baltimore,MD,21216,150000,,1.5,,1476,1972,1926,,102,,,,,https://www.redfin.com/MD/Baltimore/2423-Calverton-Heights-Ave-21216/home/10949625,,,N,Y,39.2974691,-76.6558756
PAST SALE,,Townhouse,2134 Division St,Baltimore,MD,21217,61000,,,,,1092,1920,,,,,,,https://www.redfin.com/MD/Baltimore/2134-Division-St-21217/home/17160679,,,N,Y,39.3078475,-76.6381229
PAST SALE,,Townhouse,805 Wicklow Rd,Baltimore,MD,21229,223000,,2,,1540,4335,1950,,145,,,,,https://www.redfin.com/MD/Baltimore/805-Wicklow-Rd-21229/home/11218243,,,N,Y,39.2961384,-76.6877971
PAST SALE,May-31-2023,Townhouse,1645 S Hanover St,Baltimore,MD,21230,350000,3,2.5,Ward 23,1416,984,1900,,247,,Sold,,,https://www.redfin.com/MD/Baltimore/1645-S-Hanover-St-21230/home/11011701,BRIGHT MLS,MDBA2084540,N,Y,39.2706849,-76.6148979
PAST SALE,,Townhouse,121 N Monastery Ave,Baltimore,MD,21229,165000,,2,,1080,1125,1932,,153,,,,,https://www.redfin.com/MD/Baltimore/121-N-Monastery-Ave-21229/home/10991141,,,N,Y,39.2884117,-76.67564
PAST SALE,,Townhouse,4121 Pascal Ave,Baltimore,MD,21226,195000,,1.5,,1521,1568,1997,,128,,,,,https://www.redfin.com/MD/Baltimore/4121-Pascal-Ave-21226/home/11057755,,,N,Y,39.2277714,-76.5917393
PAST SALE,August-1-2023,Single Family Residential,4116 Kathland,Baltimore,MD,21207,399990,4,3.5,Ward 28,2230,9600,1924,,179,,Sold,,,https://www.redfin.com/MD/Baltimore/4116-Kathland-Ave-21207/home/11216661,BRIGHT MLS,MDBA2091650,N,Y,39.3260688,-76.69056
PAST SALE,,Townhouse,2730 Baker St,Baltimore,MD,21216,50000,,,,,1026,1920,,,,,,,https://www.redfin.com/MD/Baltimore/2730-Baker-St-21216/home/10888626,,,N,Y,39.3062994,-76.6617222
PAST SALE,,Townhouse,1706 E 33rd St,Baltimore,MD,21218,240000,,1,,2375,6000,1920,,101,,,,,https://www.redfin.com/MD/Baltimore/1706-E-33rd-St-21218/home/10822375,,,N,Y,39.3287013,-76.5912282
PAST SALE,,Townhouse,3818 Park Heights Ave,Baltimore,MD,21215,170000,,,,,3680,1920,,,,,,,https://www.redfin.com/MD/Baltimore/3818-Park-Heights-Ave-21215/home/10916508,,,N,Y,39.332478,-76.6616185
PAST SALE,,Townhouse,3716 8th St,Baltimore,MD,21225,170000,,2,,1088,1312,1942,,156,,,,,https://www.redfin.com/MD/Baltimore/3716-8th-St-21225/home/11051639,,,N,Y,39.2336445,-76.6003191
PAST SALE,July-27-2023,Townhouse,1705 W North Ave,Baltimore,MD,21217,125000,3,2,Ward 15,,,1920,,,,Sold,,,https://www.redfin.com/MD/Baltimore/1705-W-North-Ave-21217/home/10894719,BRIGHT MLS,MDBA2094812,N,Y,39.3096978,-76.6452859
PAST SALE,,Townhouse,1413 Riverside Ave,Baltimore,MD,21230,445000,,2.5,,1808,1092,1885,,246,,,,,https://www.redfin.com/MD/Baltimore/1413-Riverside-Ave-21230/home/11025579,,,N,Y,39.2739858,-76.6083223
PAST SALE,,Townhouse,3218 Westmont Ave,Baltimore,MD,21216,62900,,1,,1280,1392,1940,,49,,,,,https://www.redfin.com/MD/Baltimore/3218-Westmont-Ave-21216/home/10942695,,,N,Y,39.3013993,-76.6704973
PAST SALE,,Single Family Residential,509 Radnor Ave,Baltimore,MD,21212,185000,,1,,2065,7548,1900,,90,,,,,https://www.redfin.com/MD/Baltimore/509-Radnor-Ave-21212/home/11193854,,,N,Y,39.3476743,-76.6086593
PAST SALE,,Townhouse,2245 Linden Ave,Baltimore,MD,21217,193000,,3,,3240,3200,1911,,60,,,,,https://www.redfin.com/MD/Baltimore/2245-Linden-Ave-21217/home/10867182,,,N,Y,39.3134736,-76.6348187
PAST SALE,,Townhouse,1717 E 31st St,Baltimore,MD,21218,150000,4,3,,1800,1908,1924,,83,,,,,https://www.redfin.com/MD/Baltimore/1717-E-31st-St-21218/home/10815099,,,N,Y,39.325861,-76.591254
PAST SALE,,Single Family Residential,4802 Althea Ave,Baltimore,MD,21206,200000,,2.5,,1868,10206,1922,,107,,,,,https://www.redfin.com/MD/Baltimore/4802-Althea-Ave-21206/home/11116437,,,N,Y,39.3327257,-76.5577413
PAST SALE,,Townhouse,3443 Elmley Ave,Baltimore,MD,21213,95000,,1,,1102,1221,1925,,86,,,,,https://www.redfin.com/MD/Baltimore/3443-Elmley-Ave-21213/home/10801187,,,N,Y,39.316909,-76.5745508
PAST SALE,,Single Family Residential,4518 Weitzel Ave,Baltimore,MD,21214,255000,,1,,1512,6747,1915,,169,,,,,https://www.redfin.com/MD/Baltimore/4518-Weitzel-Ave-21214/home/11145759,,,N,Y,39.3437608,-76.5748083
PAST SALE,May-19-2023,Townhouse,1702 Park Ave,Baltimore,MD,21217,850000,6,4,Ward 14,4620,2665,1895,,184,,Sold,,,https://www.redfin.com/MD/Baltimore/1702-Park-Ave-21217/home/10875461,BRIGHT MLS,MDBA2086476,N,Y,39.3091381,-76.6273861
PAST SALE,,Townhouse,2840 Woodbrook Ave,Baltimore,MD,21217,48000,,1,,1232,1066,1920,,39,,,,,https://www.redfin.com/MD/Baltimore/2840-Woodbrook-Ave-21217/home/10862516,,,N,Y,39.3144143,-76.646448
PAST SALE,,Townhouse,307 Tuscany Rd,Baltimore,MD,21210,610000,,3.5,,2190,2595,1930,,279,,,,,https://www.redfin.com/MD/Baltimore/307-Tuscany-Rd-21210/home/10837147,,,N,Y,39.33977,-76.6244246
PAST SALE,,Townhouse,4021 Wilkens Ave,Baltimore,MD,21229,130000,,1,,1440,2400,1936,,90,,,,,https://www.redfin.com/MD/Baltimore/4021-Wilkens-Ave-21229/home/11027898,,,N,Y,39.26814,-76.6878072
PAST SALE,,Townhouse,1715 Braddish Ave,Baltimore,MD,21216,106667,,,,,1162,1920,,,,,,,https://www.redfin.com/MD/Baltimore/1715-Braddish-Ave-21216/home/10887877,,,N,Y,39.3077787,-76.6607699
PAST SALE,,Townhouse,2157 Harman Ave,Baltimore,MD,21230,87000,,1,,1050,1232,1952,,83,,,,,https://www.redfin.com/MD/Baltimore/2157-Harman-Ave-21230/home/11038500,,,N,Y,39.2644132,-76.6483413
PAST SALE,,Townhouse,3011 Beverly Rd,Baltimore,MD,21214,225000,,2,,1650,2190,1945,,136,,,,,https://www.redfin.com/MD/Baltimore/3011-Beverly-Rd-21214/home/11122037,,,N,Y,39.3398319,-76.5711193
PAST SALE,,Townhouse,514 Sunset Rd,Baltimore,MD,21223,73300,,1,,840,1190,1950,,87,,,,,https://www.redfin.com/MD/Baltimore/514-Sunset-Rd-21223/home/10973996,,,N,Y,39.2776645,-76.6644292
PAST SALE,,Townhouse,2558 Aisquith St,Baltimore,MD,21218,55000,,,,,1125,1920,,,,,,,https://www.redfin.com/MD/Baltimore/2558-Aisquith-St-21218/home/10814115,,,N,Y,39.3189233,-76.596972
PAST SALE,May-6-2023,Townhouse,4905 Saint Georges Ave,Baltimore,MD,21212,110000,3,1.5,Ward 27,1280,3562,1954,,86,,Sold,,,https://www.redfin.com/MD/Baltimore/4905-Saint-Georges-Ave-21212/home/11196465,BRIGHT MLS,MDBA2080708,N,Y,39.3478051,-76.6019957
PAST SALE,,Single Family Residential,4100 N Rogers Ave,Baltimore,MD,21207,180000,,2,,1026,9453,1941,,175,,,,,https://www.redfin.com/MD/Baltimore/4100-N-Rogers-Ave-21207/home/11214146,,,N,Y,39.3397731,-76.6984985
PAST SALE,,Single Family Residential,3803 Ridgewood Ave,Baltimore,MD,21215,90000,,1,,1243,4600,1925,,72,,,,,https://www.redfin.com/MD/Baltimore/3803-Ridgewood-Ave-21215/home/10903246,,,N,Y,39.3363034,-76.6799143
PAST SALE,,Townhouse,505 N Rose St,Baltimore,MD,21205,131750,,1,,504,780,1920,,261,,,,,https://www.redfin.com/MD/Baltimore/505-N-Rose-St-21205/home/10771677,,,N,Y,39.2971531,-76.5813123
PAST SALE,,Townhouse,2402 Presbury St,Baltimore,MD,21216,65000,,,,,1440,1920,,,,,,,https://www.redfin.com/MD/Baltimore/2402-Presbury-St-21216/home/10890002,,,N,Y,39.307746,-76.6563209
PAST SALE,August-31-2023,Townhouse,5653 Arnhem Rd,Baltimore,MD,21206,160000,3,1,HOLLAND HILL,1184,3876,1964,,135,,Sold,,,https://www.redfin.com/MD/Baltimore/5653-Arnhem-Rd-21206/home/9391767,BRIGHT MLS,MDBC2075226,N,Y,39.334303,-76.5261411
PAST SALE,,Townhouse,506 Savage St,Baltimore,MD,21224,165000,,1.5,,1484,1360,1924,,111,,,,,https://www.redfin.com/MD/Baltimore/506-Savage-St-21224/home/11060754,,,N,Y,39.286687,-76.5523149
PAST SALE,,Townhouse,1087 Ellicott Dr,Baltimore,MD,21216,55000,,2,,1446,1672,1935,,38,,,,,https://www.redfin.com/MD/Baltimore/1087-Ellicott-Dr-21216/home/10943523,,,N,Y,39.3005835,-76.6685779
PAST SALE,,Single Family Residential,4307 Cook Ave,Baltimore,MD,21206,201000,3,1.5,,1298,9148,1918,,155,,,,,https://www.redfin.com/MD/Baltimore/4307-Cook-Ave-21206/home/11887257,,,N,Y,39.3357748,-76.5511487
PAST SALE,,Townhouse,5708 Ranny Rd,Baltimore,MD,21209,310000,,1.5,,1766,3565,1948,,176,,,,,https://www.redfin.com/MD/Baltimore/5708-Ranny-Rd-21209/home/11164722,,,N,Y,39.3640482,-76.6606772
PAST SALE,,Single Family Residential,3716 Ferndale Ave,Baltimore,MD,21207,189000,,1.5,,1672,5998,1925,,113,,,,,https://www.redfin.com/MD/Baltimore/3716-Ferndale-Ave-21207/home/11215098,,,N,Y,39.3358073,-76.6996533
PAST SALE,,Townhouse,3512 Parklawn Ave,Baltimore,MD,21213,220000,,1,,1390,1980,1941,,158,,,,,https://www.redfin.com/MD/Baltimore/3512-Parklawn-Ave-21213/home/10778276,,,N,Y,39.3257019,-76.5742814
PAST SALE,July-12-2023,Townhouse,4211 Pimlico Rd,Baltimore,MD,21215,205000,3,1.5,Ward 15,,1919,1920,,,,Sold,,,https://www.redfin.com/MD/Baltimore/4211-Pimlico-Rd-21215/home/10920426,BRIGHT MLS,MDBA2092590,N,Y,39.3378569,-76.6627419
PAST SALE,July-17-2023,Single Family Residential,1802 Letitia Ave,Baltimore,MD,21230,127000,6,2.5,Ward 25,1200,2400,1920,,106,,Sold,,,https://www.redfin.com/MD/Baltimore/1802-Letitia-Ave-21230/home/11034837,BRIGHT MLS,MDBA2093138,N,Y,39.2639281,-76.6572307
PAST SALE,June-9-2023,Townhouse,1826 Webster St,Baltimore,MD,21230,640000,4,3.5,Ward 24,3260,1,2009,,196,38,Sold,,,https://www.redfin.com/MD/Baltimore/1826-Webster-St-21230/home/17108355,BRIGHT MLS,MDBA2084430,N,Y,39.2689605,-76.604353
PAST SALE,,Townhouse,518 S Bentalou St,Baltimore,MD,21223,50000,,1,,1032,840,1920,,48,,,,,https://www.redfin.com/MD/Baltimore/518-S-Bentalou-St-21223/home/10979894,,,N,Y,39.2810201,-76.6524814
PAST SALE,September-26-2023,Townhouse,3520 Roland Ave,Baltimore,MD,21211,319000,3,1.5,Ward 13,980,,1900,,326,,Sold,,,https://www.redfin.com/MD/Baltimore/3520-Roland-Ave-21211/home/10871099,BRIGHT MLS,MDBA2100664,N,Y,39.3300293,-76.6328872
PAST SALE,,Townhouse,1413 Dukeland St,Baltimore,MD,21216,53000,,1,,920,1204,1940,,58,,,,,https://www.redfin.com/MD/Baltimore/1413-Dukeland-St-21216/home/10945882,,,N,Y,39.30415,-76.6634737
PAST SALE,,Single Family Residential,4205 Glenmore Ave,Baltimore,MD,21206,90000,,1,,1512,6704,1919,,60,,,,,https://www.redfin.com/MD/Baltimore/4205-Glenmore-Ave-21206/home/11096721,,,N,Y,39.3508151,-76.5341769
PAST SALE,,Townhouse,1253 Meridene Dr,Baltimore,MD,21239,140000,,1.5,,1672,2128,1954,,84,,,,,https://www.redfin.com/MD/Baltimore/1253-Meridene-Dr-21239/home/11204843,,,N,Y,39.3683786,-76.5907283
PAST SALE,September-11-2023,Townhouse,3935 Duvall Ave,Baltimore,MD,21216,120000,3,1.5,Ward 15,1248,,1940,,96,,Sold,,,https://www.redfin.com/MD/Baltimore/3935-Duvall-Ave-21216/home/10909831,BRIGHT MLS,MDBA2090346,N,Y,39.3187816,-76.6853362
PAST SALE,June-9-2023,Townhouse,804 Harlem Ave,Baltimore,MD,21201,350270,3,2.5,Ward 17,1962,,1915,,179,,Sold,,,https://www.redfin.com/MD/Baltimore/804-Harlem-Ave-21201/home/10951531,BRIGHT MLS,MDBA2014578,N,Y,39.2971271,-76.6310837
PAST SALE,,Townhouse,808 N Lakewood Ave,Baltimore,MD,21205,70000,,1,,672,962,1920,,104,,,,,https://www.redfin.com/MD/Baltimore/808-N-Lakewood-Ave-21205/home/10775984,,,N,Y,39.3002738,-76.579776
PAST SALE,July-28-2023,Townhouse,2116 W Baltimore St,Baltimore,MD,21223,57083,3,1,Ward 20,,,1920,,,,Sold,,,https://www.redfin.com/MD/Baltimore/2116-W-Baltimore-St-21223/home/10985121,BRIGHT MLS,MDBA2093928,N,Y,39.2882237,-76.6507733
PAST SALE,,Townhouse,4809 Melbourne Rd,Baltimore,MD,21229,167000,,1,,1120,1856,1964,,149,,,,,https://www.redfin.com/MD/Baltimore/4809-Melbourne-Rd-21229/home/11033136,,,N,Y,39.2726886,-76.6975001
PAST SALE,,Townhouse,1030 Parksley Ave,Baltimore,MD,21223,104000,,1.5,,1050,1680,1951,,99,,,,,https://www.redfin.com/MD/Baltimore/1030-Parksley-Ave-21223/home/11035196,,,N,Y,39.2732288,-76.6633013
PAST SALE,,Townhouse,226 S Collington Ave,Baltimore,MD,21231,300000,,2.5,,1920,1189,1910,,156,,,,,https://www.redfin.com/MD/Baltimore/226-S-Collington-Ave-21231/home/10726202,,,N,Y,39.2885731,-76.5862227
PAST SALE,,Townhouse,1016 Stiles St,Baltimore,MD,21202,323000,,1.5,,1260,682,1900,,256,,,,,https://www.redfin.com/MD/Baltimore/1016-Stiles-St-21202/home/10750996,,,N,Y,39.2876431,-76.6006615
PAST SALE,June-23-2023,Townhouse,41 E Hamburg St,Baltimore,MD,21230,340000,3,1.5,Ward 23,1684,922,1900,,202,,Sold,,,https://www.redfin.com/MD/Baltimore/41-E-Hamburg-St-21230/home/11009232,BRIGHT MLS,MDBA2090360,N,Y,39.2780811,-76.6130541
PAST SALE,,Townhouse,3159 Keswick Rd,Baltimore,MD,21211,235000,,1.5,,1170,1350,1900,,201,,,,,https://www.redfin.com/MD/Baltimore/3159-Keswick-Rd-21211/home/10870068,,,N,Y,39.3254779,-76.6274963
PAST SALE,,Townhouse,334 S Norris St,Baltimore,MD,21223,30000,,,,,775,1900,,,,,,,https://www.redfin.com/MD/Baltimore/334-S-Norris-St-21223/home/10964865,,,N,Y,39.2836409,-76.640103
PAST SALE,,Townhouse,314 N Grantley St,Baltimore,MD,21229,73500,,1,,840,1260,1952,,88,,,,,https://www.redfin.com/MD/Baltimore/314-N-Grantley-St-21229/home/10989764,,,N,Y,39.2913432,-76.677056
PAST SALE,,Townhouse,3201 Ramona Ave,Baltimore,MD,21213,150000,,1,,1674,1714,1928,,90,,,,,https://www.redfin.com/MD/Baltimore/3201-Ramona-Ave-21213/home/11112459,,,N,Y,39.3242346,-76.5653453
PAST SALE,,Townhouse,1900 Mosher St,Baltimore,MD,21217,160000,,,,,1160,1920,,,,,,,https://www.redfin.com/MD/Baltimore/1900-Mosher-St-21217/home/10927949,,,N,Y,39.2999826,-76.6477279
PAST SALE,,Townhouse,9 N Monastery Ave,Baltimore,MD,21229,95000,,1,,1020,1669,1930,,93,,,,,https://www.redfin.com/MD/Baltimore/9-N-Monastery-Ave-21229/home/10990226,,,N,Y,39.2866617,-76.6777216
PAST SALE,June-29-2023,Townhouse,610 S Rose St,Baltimore,MD,21224,295000,2,1.5,Ward 1,852,,1920,,346,,Sold,,,https://www.redfin.com/MD/Baltimore/610-S-Rose-St-21224/home/10731090,BRIGHT MLS,MDBA2091064,N,Y,39.2845833,-76.5808693
PAST SALE,,Townhouse,4056 Edgewood Rd,Baltimore,MD,21215,62500,,2,,1452,2266,1955,,43,,,,,https://www.redfin.com/MD/Baltimore/4056-Edgewood-Rd-21215/home/10907086,,,N,Y,39.3333226,-76.6675466
PAST SALE,,Townhouse,5 N Ellamont St,Baltimore,MD,21229,60000,,1.5,,1280,1429,1939,,47,,,,,https://www.redfin.com/MD/Baltimore/5-N-Ellamont-St-21229/home/10993055,,,N,Y,39.2861135,-76.6702784
PAST SALE,,Townhouse,2307 N Ellamont St,Baltimore,MD,21216,85000,,1.5,,1520,2000,1925,,56,,,,,https://www.redfin.com/MD/Baltimore/2307-N-Ellamont-St-21216/home/10914372,,,N,Y,39.3135516,-76.6709527
PAST SALE,,Townhouse,2500 Huron St,Baltimore,MD,21230,93000,,1,,1008,3117,1992,,92,,,,,https://www.redfin.com/MD/Baltimore/2500-Huron-St-21230/home/11039283,,,N,Y,39.2624316,-76.6436665
PAST SALE,,Single Family Residential,302 Cedarcroft Rd,Baltimore,MD,21212,639000,,1.5,,2465,13346,1928,,259,,,,,https://www.redfin.com/MD/Baltimore/302-Cedarcroft-Rd-21212/home/11211269,,,N,Y,39.3693055,-76.6149384
PAST SALE,,Single Family Residential,2110 Allendale Rd,Baltimore,MD,21216,100000,,1,,1466,6095,1920,,68,,,,,https://www.redfin.com/MD/Baltimore/2110-Allendale-Rd-21216/home/10883975,,,N,Y,39.3119781,-76.6800045
PAST SALE,,Townhouse,336 S Norris St,Baltimore,MD,21223,45000,,,,,775,1900,,,,,,,https://www.redfin.com/MD/Baltimore/336-S-Norris-St-21223/home/10964867,,,N,Y,39.2836236,-76.6400699
PAST SALE,,Single Family Residential,7418 Poplar Ave,Baltimore,MD,21224,145000,,1,,1092,7500,1954,,133,,,,,https://www.redfin.com/MD/Baltimore/7418-Poplar-Ave-21224/home/9303260,,,N,Y,39.2873106,-76.513483
PAST SALE,June-7-2023,Townhouse,3214 Odonnell St,Baltimore,MD,21224,395000,3,3.5,Ward 26,1542,871,1920,,256,,Sold,,,https://www.redfin.com/MD/Baltimore/3214-Odonnell-St-21224/home/11070398,BRIGHT MLS,MDBA2082534,N,Y,39.2805948,-76.5705858
PAST SALE,,Townhouse,2555 W Fairmount Ave,Baltimore,MD,21223,50000,,,,,1008,1915,,,,,,,https://www.redfin.com/MD/Baltimore/2555-W-Fairmount-Ave-21223/home/10976555,,,N,Y,39.2881502,-76.6580053
PAST SALE,May-8-2023,Townhouse,1201 Scott St,Baltimore,MD,21230,305000,4,2.5,Ward 21,1764,1,1900,,173,,Sold,,,https://www.redfin.com/MD/Baltimore/1201-Scott-St-21230/home/11003496,BRIGHT MLS,MDBA2084958,N,Y,39.278731,-76.628339
PAST SALE,,Townhouse,1939 Harlem Ave,Baltimore,MD,21217,222000,,,,,1190,1920,,,,,,,https://www.redfin.com/MD/Baltimore/1939-Harlem-Ave-21217/home/10933860,,,N,Y,39.2962036,-76.6487349
PAST SALE,June-16-2023,Townhouse,130 N Monastery Ave,Baltimore,MD,21229,172000,3,1,Ward 20,1767,1843,1942,,97,,Sold,,,https://www.redfin.com/MD/Baltimore/130-N-Monastery-Ave-21229/home/10988507,BRIGHT MLS,MDBA2087172,N,Y,39.2889246,-76.6755949
PAST SALE,June-27-2023,Townhouse,1219 Berry St,Baltimore,MD,21211,603000,3,4,Ward 13,2040,1,2018,,296,141,Sold,,,https://www.redfin.com/MD/Baltimore/1219-Berry-St-21211/home/108433884,BRIGHT MLS,MDBA2090692,N,Y,39.3315569,-76.6363128
PAST SALE,,Townhouse,118 S Loudon Ave,Baltimore,MD,21229,80000,,1,,1204,1120,1920,,66,,,,,https://www.redfin.com/MD/Baltimore/118-S-Loudon-Ave-21229/home/10971332,,,N,Y,39.2841477,-76.682339
PAST SALE,,Townhouse,1535 Abbotston St,Baltimore,MD,21218,65000,,,,,1260,1920,,,,,,,https://www.redfin.com/MD/Baltimore/1535-Abbotston-St-21218/home/10818431,,,N,Y,39.3233621,-76.5955408
PAST SALE,,Townhouse,4016 Eierman Ave,Baltimore,MD,21206,125000,,2,,1136,1414,1927,,110,,,,,https://www.redfin.com/MD/Baltimore/4016-Eierman-Ave-21206/home/11123670,,,N,Y,39.3302817,-76.5660091
PAST SALE,,Townhouse,3660 Kenyon Ave,Baltimore,MD,21213,75000,,1.5,,1050,2016,1950,,71,,,,,https://www.redfin.com/MD/Baltimore/3660-Kenyon-Ave-21213/home/11103555,,,N,Y,39.3184156,-76.5621095
PAST SALE,,Townhouse,2570 W Fairmount Ave,Baltimore,MD,21223,121300,,1,,1204,990,1915,,101,,,,,https://www.redfin.com/MD/Baltimore/2570-W-Fairmount-Ave-21223/home/10976235,,,N,Y,39.2884397,-76.6583835
PAST SALE,,Townhouse,2509 Southdene Ave,Baltimore,MD,21230,105000,,1,,1024,1600,1958,,103,,,,,https://www.redfin.com/MD/Baltimore/2509-Southdene-Ave-21230/home/11040591,,,N,Y,39.2548847,-76.6493955
PAST SALE,May-11-2023,Townhouse,7806 Eastdale Rd,Baltimore,MD,21224,125000,2,1,NORTHBROOK,896,1632,1952,,140,,Sold,,,https://www.redfin.com/MD/Baltimore/7806-Eastdale-Rd-21224/home/9461076,BRIGHT MLS,MDBC2064730,N,Y,39.297423,-76.517799
PAST SALE,,Townhouse,833 Harlem Ave,Baltimore,MD,21201,105000,,,,1884,1720,1920,,56,,,,,https://www.redfin.com/MD/Baltimore/833-Harlem-Ave-21201/home/10951866,,,N,Y,39.2967854,-76.6320825
PAST SALE,May-15-2023,Townhouse,2419 Harlem Ave,Baltimore,MD,21216,95000,4,1,Ward 16,1824,2208,1926,,52,,Sold,,,https://www.redfin.com/MD/Baltimore/2419-Harlem-Ave-21216/home/10949796,BRIGHT MLS,MDBA2079002,N,Y,39.2960897,-76.6558263
PAST SALE,,Townhouse,2419 Calverton Heights Ave,Baltimore,MD,21216,145000,,1.5,,2196,1972,1926,,66,,,,,https://www.redfin.com/MD/Baltimore/2419-Calverton-Heights-Ave-21216/home/10949622,,,N,Y,39.2975112,-76.6557423
PAST SALE,,Single Family Residential,1913 Letitia Ave,Baltimore,MD,21230,189000,,1,,1586,5500,1920,,119,,,,,https://www.redfin.com/MD/Baltimore/1913-Letitia-Ave-21230/home/11036108,,,N,Y,39.2629968,-76.6549206
PAST SALE,,Townhouse,3 S Rosedale St,Baltimore,MD,21229,182000,,1.5,,1280,1468,1940,,142,,,,,https://www.redfin.com/MD/Baltimore/3-S-Rosedale-St-21229/home/10993740,,,N,Y,39.2857399,-76.6687602
PAST SALE,,Single Family Residential,715 Gorsuch Ave,Baltimore,MD,21218,135000,,2,,2420,4900,1920,,56,,,,,https://www.redfin.com/MD/Baltimore/715-Gorsuch-Ave-21218/home/10807096,,,N,Y,39.3268183,-76.6059565
PAST SALE,September-15-2023,Townhouse,2107 Hollins Ferry Rd,Baltimore,MD,21230,130000,2,1,Ward 25,960,1200,1920,,135,,Sold,,,https://www.redfin.com/MD/Baltimore/2107-Hollins-Ferry-Rd-21230/home/11039061,BRIGHT MLS,MDBA2096694,N,Y,39.2668379,-76.645163
PAST SALE,,Townhouse,308 S Payson St,Baltimore,MD,21223,110000,,,,,864,1900,,,,,,,https://www.redfin.com/MD/Baltimore/308-S-Payson-St-21223/home/10981050,,,N,Y,39.2839299,-76.6485759
PAST SALE,September-21-2023,Single Family Residential,26 Elm Ave W,Baltimore,MD,21206,240000,3,2.5,GONTRUM,2254,4620,1925,,106,,Sold,,,https://www.redfin.com/MD/Baltimore/26-W-Elm-Ave-21206/home/9408316,BRIGHT MLS,MDBC2076604,N,Y,39.3610109,-76.5274396
PAST SALE,September-15-2023,Townhouse,6103 Cardiff Ave,Baltimore,MD,21224,60000,2,1,Ward 26,1050,1682,1953,,57,,Sold,,,https://www.redfin.com/MD/Baltimore/6103-Cardiff-Ave-21224/home/11065855,BRIGHT MLS,MDBA2099428,N,Y,39.2760291,-76.5433355
PAST SALE,,Townhouse,4017 Biddison Ln,Baltimore,MD,21206,105000,,2,,1140,1501,1942,,92,,,,,https://www.redfin.com/MD/Baltimore/4017-Biddison-Ln-21206/home/11129101,,,N,Y,39.3376053,-76.5543338
PAST SALE,June-27-2023,Townhouse,119 E Gittings St,Baltimore,MD,21230,625000,4,4.5,Ward 24,1001,1350,1820,,624,,Sold,,,https://www.redfin.com/MD/Baltimore/119-E-Gittings-St-21230/home/11016095,BRIGHT MLS,MDBA2078344,N,Y,39.2741737,-76.6111585
PAST SALE,,Townhouse,1229 Pine Heights Ave,Baltimore,MD,21229,220000,,1,,1024,3946,1956,,215,,,,,https://www.redfin.com/MD/Baltimore/1229-Pine-Heights-Ave-21229/home/11030655,,,N,Y,39.2671144,-76.6734613
PAST SALE,,Single Family Residential,4100 West Dr,Baltimore,MD,21229,169000,,1.5,,1440,9120,1930,,117,,,,,https://www.redfin.com/MD/Baltimore/4100-West-Dr-21229/home/9368031,,,N,Y,39.2671175,-76.6893872
PAST SALE,,Townhouse,1813 Appleton St,Baltimore,MD,21217,60000,,,,,1112,1920,,,,,,,https://www.redfin.com/MD/Baltimore/1813-Appleton-St-21217/home/10895763,,,N,Y,39.3091294,-76.6487756
PAST SALE,,Townhouse,110 Westowne Rd,Baltimore,MD,21229,163000,,2,,1406,1710,1942,,116,,,,,https://www.redfin.com/MD/Baltimore/110-Westowne-Rd-21229/home/9111653,,,N,Y,39.2854226,-76.7113821
PAST SALE,,Townhouse,3501 Oakmont Ave,Baltimore,MD,21215,47000,,,,,3660,,,,,,,,https://www.redfin.com/MD/Baltimore/3501-Oakmont-Ave-21215/home/11171526,,,N,Y,39.3455635,-76.6759896
PAST SALE,,Townhouse,1137 Poplar Grove St,Baltimore,MD,21216,120000,,2,,1440,1540,1920,,83,,,,,https://www.redfin.com/MD/Baltimore/1137-Poplar-Grove-St-21216/home/10946964,,,N,Y,39.3011754,-76.665035
PAST SALE,May-12-2023,Townhouse,4046 Elmora Ave,Baltimore,MD,21213,180000,3,2,Ward 26,1120,,1953,,161,,Sold,,,https://www.redfin.com/MD/Baltimore/4046-Elmora-Ave-21213/home/11104447,BRIGHT MLS,MDBA2085528,N,Y,39.318879,-76.5580463
PAST SALE,,Townhouse,1515 N Decker Ave,Baltimore,MD,21213,200000,,2,,1420,1876,1945,,141,,,,,https://www.redfin.com/MD/Baltimore/1515-N-Decker-Ave-21213/home/10791676,,,N,Y,39.3087642,-76.5746233
PAST SALE,,Townhouse,5122 Belair Rd,Baltimore,MD,21206,145000,,1,,1860,1590,1925,,78,,,,,https://www.redfin.com/MD/Baltimore/5122-Belair-Rd-21206/home/11129213,,,N,Y,39.3368109,-76.5539596
PAST SALE,June-26-2023,Single Family Residential,4222 Fords Ln,Baltimore,MD,21215,202500,3,2,Ward 28,1350,5319,1955,,150,,Sold,,,https://www.redfin.com/MD/Baltimore/4222-Fords-Ln-21215/home/11213178,BRIGHT MLS,MDBA2092682,N,Y,39.3531994,-76.704407
PAST SALE,,Townhouse,821 N Curley St,Baltimore,MD,21205,167000,,1,,480,801,1920,,348,,,,,https://www.redfin.com/MD/Baltimore/821-N-Curley-St-21205/home/10776631,,,N,Y,39.3008515,-76.5758806
PAST SALE,,Single Family Residential,5712 Adleigh Ave,Baltimore,MD,21206,160000,,1,,1377,4426,1954,,116,,,,,https://www.redfin.com/MD/Baltimore/5712-Adleigh-Ave-21206/home/11099552,,,N,Y,39.3405275,-76.5407624
