SALE TYPE,SOLD DATE,PROPERTY TYPE,ADDRESS,CITY,STATE OR PROVINCE,ZIP OR POSTAL CODE,PRICE,BEDS,BATHS,LOCATION,SQUARE FEET,LOT SIZE,YEAR BUILT,DAYS ON MARKET,$/SQUARE FEET,HOA/MONTH,STATUS,NEXT OPEN HOUSE START TIME,NEXT OPEN HOUSE END TIME,URL (SEE https://www.redfin.com/buy-a-home/comparative-market-analysis FOR INFO ON PRICING),SOURCE,MLS#,FAVORITE,INTERESTED,LATITUDE,LONGITUDE
PAST SALE,April-28-2023,Single Family Residential,7115 Crail Dr,Bethesda,MD,20817,1470000,4,4,BANNOCKBURN,3348,39932,1959,,439,,Sold,,,https://www.redfin.com/MD/Bethesda/7115-Crail-Dr-20817/home/10667142,BRIGHT MLS,MDMC2085338,N,Y,38.9811699,-77.1425618
PAST SALE,September-21-2023,Single Family Residential,7510 Persimmon Tree Ln,Bethesda,MD,20817,1600000,4,3.5,POTOMAC OUTSIDE,2941,44351,1961,,544,,Sold,,,https://www.redfin.com/MD/Bethesda/7510-Persimmon-Tree-Ln-20817/home/10885862,BRIGHT MLS,MDMC2104212,N,Y,38.9839999,-77.172983
PAST SALE,May-11-2023,Single Family Residential,5909 Kingsford Pl,Bethesda,MD,20817,1165000,5,3,ASHBURTON,2522,10478,1957,,462,,Sold,,,https://www.redfin.com/MD/Bethesda/5909-Kingsford-Pl-20817/home/10671463,BRIGHT MLS,MDMC2088918,N,Y,39.0137903,-77.1206286
PAST SALE,September-6-2023,Single Family Residential,9802 Brixton Ln,Bethesda,MD,20817,1261000,5,3.5,STRATTON WOODS,3184,10094,1961,,396,,Sold,,,https://www.redfin.com/MD/Bethesda/9802-Brixton-Ln-20817/home/10675958,BRIGHT MLS,MDMC2101234,N,Y,39.0156849,-77.1338842
PAST SALE,June-14-2023,Single Family Residential,9300 Renshaw Dr,Bethesda,MD,20817,1620000,5,3.5,BRADLEY MANOR,4477,21941,1963,,362,,Sold,,,https://www.redfin.com/MD/Bethesda/9300-Renshaw-Dr-20817/home/10676189,BRIGHT MLS,MDMC2091666,N,Y,39.0089325,-77.1402698
PAST SALE,July-11-2023,Single Family Residential,7616 Hamilton Spring Rd,Bethesda,MD,20817,1390000,5,4,CARDEROCK SPRINGS,3338,19668,1966,,416,,Sold,,,https://www.redfin.com/MD/Bethesda/7616-Hamilton-Spring-Rd-20817/home/10888961,BRIGHT MLS,MDMC2091112,N,Y,38.9839661,-77.1651201
PAST SALE,July-28-2023,Single Family Residential,6921 Granby St,Bethesda,MD,20817,1162500,4,3,KENWOOD PARK,2236,9720,1959,,520,,Sold,,,https://www.redfin.com/MD/Bethesda/6921-Granby-St-20817/home/10668835,BRIGHT MLS,MDMC2097410,N,Y,38.9803172,-77.1173473
PAST SALE,October-5-2023,Single Family Residential,5803 Ogden Rd,Bethesda,MD,20816,1165000,4,3,COUNTRY CLUB HILLS,2355,11022,1957,,495,,Sold,,,https://www.redfin.com/MD/Bethesda/5803-Ogden-Rd-20816/home/10636809,BRIGHT MLS,MDMC2103724,N,Y,38.9699451,-77.116201
PAST SALE,October-11-2023,Single Family Residential,5110 Brookeway Dr,Bethesda,MD,20816,1178000,4,4,MASS AVE HILLS,2702,8350,1955,,436,,Sold,,,https://www.redfin.com/MD/Bethesda/5110-Brookeway-Dr-20816/home/10667456,BRIGHT MLS,MDMC2100992,N,Y,38.9579924,-77.1152795
PAST SALE,June-20-2023,Single Family Residential,5917 Anniston Rd,Bethesda,MD,20817,1950000,5,4.5,ALTA VISTA TERRACE,4800,7150,2017,,406,,Sold,,,https://www.redfin.com/MD/Bethesda/5917-Anniston-Rd-20817/home/10677999,BRIGHT MLS,MDMC2089904,N,Y,39.0081896,-77.1190673
PAST SALE,May-19-2023,Single Family Residential,9903 Carnegie Ter,Bethesda,MD,20817,1100000,4,3.5,ASHBURTON,1885,8004,1958,,584,,Sold,,,https://www.redfin.com/MD/Bethesda/9903-Carnegie-Ter-20817/home/10670739,BRIGHT MLS,MDMC2084668,N,Y,39.0175842,-77.1266067
PAST SALE,June-5-2023,Single Family Residential,5909 Osceola Rd,Bethesda,MD,20816,1250000,3,3,HIGH POINT,2736,7036,1953,,457,,Sold,,,https://www.redfin.com/MD/Bethesda/5909-Osceola-Rd-20816/home/10679914,BRIGHT MLS,MDMC2090964,N,Y,38.9647862,-77.1200892
PAST SALE,June-21-2023,Townhouse,8171 River,Bethesda,MD,20817,2155057,4,3.5,POTOMAC OUTSIDE,3800,2079,2023,,567,490,Sold,,,https://www.redfin.com/MD/Bethesda/8171-River-20817/home/185865826,BRIGHT MLS,MDMC2097846,N,Y,38.9959338,-77.1672341
PAST SALE,July-26-2023,Single Family Residential,4406 Chestnut St,Bethesda,MD,20814,1999000,6,5.5,ROSEDALE PARK,4532,4800,2023,,441,,Sold,,,https://www.redfin.com/MD/Bethesda/4406-Chestnut-St-20814/home/10652411,BRIGHT MLS,MDMC2086168,N,Y,38.9934849,-77.0881708
PAST SALE,,Single Family Residential,5010 Alta Vista Rd,Bethesda,MD,20814,1065000,,2.5,,1472,7560,1955,,724,,,,,https://www.redfin.com/MD/Bethesda/5010-Alta-Vista-Rd-20814/home/10672418,,,N,Y,39.0120819,-77.0999951
PAST SALE,,Single Family Residential,7207 Selkirk Dr,Bethesda,MD,20817,1120000,,4,,2465,20037,1961,,454,,,,,https://www.redfin.com/MD/Bethesda/7207-Selkirk-Dr-20817/home/10637851,,,N,Y,38.9863219,-77.1459773
PAST SALE,,Single Family Residential,4509 N Chelsea Ln,Bethesda,MD,20814,1094000,,3.5,,1474,5390,1938,,742,,,,,https://www.redfin.com/MD/Bethesda/4509-N-Chelsea-Ln-20814/home/10647682,,,N,Y,38.9950338,-77.0894747
PAST SALE,July-10-2023,Single Family Residential,6301 W Halbert Rd,Bethesda,MD,20817,2222000,5,4.5,BANNOCKBURN COOP,4233,12148,2009,,525,,Sold,,,https://www.redfin.com/MD/Bethesda/6301-W-Halbert-Rd-20817/home/10678449,BRIGHT MLS,MDMC2103268,N,Y,38.9728251,-77.1428764
PAST SALE,,Single Family Residential,5025 Allan Rd,Bethesda,MD,20816,2300000,,3,,3014,6592,1938,,763,,,,,https://www.redfin.com/MD/Bethesda/5025-Allan-Rd-20816/home/10654304,,,N,Y,38.9548941,-77.1015686
PAST SALE,June-14-2023,Single Family Residential,8804 Chalon Dr,Bethesda,MD,20817,3950000,6,7,BRADLEY HILLS GROVE,8896,30056,2002,,444,,Sold,,,https://www.redfin.com/MD/Bethesda/8804-Chalon-Dr-20817/home/10661695,BRIGHT MLS,MDMC2096876,N,Y,38.9994141,-77.1408091
PAST SALE,August-22-2023,Single Family Residential,5616 Oak Pl,Bethesda,MD,20817,1750000,6,6.5,OAKMONT,5395,8242,2008,,324,,Sold,,,https://www.redfin.com/MD/Bethesda/5616-Oak-Pl-20817/home/10651872,BRIGHT MLS,MDMC2104736,N,Y,39.0031983,-77.1140658
PAST SALE,May-26-2023,Single Family Residential,6114 Wilson Ln,Bethesda,MD,20817,925000,4,3,LANDON WOODS,2583,6988,1952,,358,,Sold,,,https://www.redfin.com/MD/Bethesda/6114-Wilson-Ln-20817/home/10667338,BRIGHT MLS,MDMC2094654,N,Y,38.988613,-77.1252133
PAST SALE,,Single Family Residential,9611 Wadsworth Dr,Bethesda,MD,20817,950000,,3,,3122,13094,1958,,304,,,,,https://www.redfin.com/MD/Bethesda/9611-Wadsworth-Dr-20817/home/10671207,,,N,Y,39.0135515,-77.1245841
PAST SALE,,Single Family Residential,5612 Massachusetts Ave,Bethesda,MD,20816,780000,,2.5,,1413,7500,1951,,552,,,,,https://www.redfin.com/MD/Bethesda/5612-Massachusetts-Ave-20816/home/10667541,,,N,Y,38.9594003,-77.1131668
PAST SALE,,Single Family Residential,6104 Maiden Ln,Bethesda,MD,20817,1125000,,3,,2204,9938,1960,,510,,,,,https://www.redfin.com/MD/Bethesda/6104-Maiden-Ln-20817/home/10667300,,,N,Y,38.9842599,-77.1223239
PAST SALE,May-30-2023,Single Family Residential,109 Brook Ln,Bethesda,MD,20814,903000,3,2.5,GLENBROOK KNOLLS,1335,5200,1940,,676,,Sold,,,https://www.redfin.com/MD/Bethesda/109-N-Brook-Ln-20814/home/10647149,BRIGHT MLS,MDMC2096074,N,Y,38.9919564,-77.104221
PAST SALE,July-7-2023,Single Family Residential,9110 Bulls Run Pkwy,Bethesda,MD,20817,925000,4,3.5,WYNGATE,1894,8555,1957,,488,,Sold,,,https://www.redfin.com/MD/Bethesda/9110-Bulls-Run-Pkwy-20817/home/10660624,BRIGHT MLS,MDMC2099546,N,Y,39.0069102,-77.1268314
PAST SALE,,Single Family Residential,8002 Park Overlook Dr,Bethesda,MD,20817,1830000,,4,,3856,16062,1964,,475,,,,,https://www.redfin.com/MD/Bethesda/8002-Park-Overlook-Dr-20817/home/10888758,,,N,Y,38.9904357,-77.1656143
PAST SALE,July-17-2023,Townhouse,7032 Artesa Ln,Bethesda,MD,20817,1258063,4,3.5,AMALYN,,,,,,,Sold,,,https://www.redfin.com/MD/Bethesda/7032-Artesa-Ln-20817/home/178427752,BRIGHT MLS,MDMC2102236,N,Y,39.016482,-77.143576
PAST SALE,,Single Family Residential,6404 Bells Mill Rd,Bethesda,MD,20817,715000,,1,,1508,7700,1955,,474,,,,,https://www.redfin.com/MD/Bethesda/6404-Bells-Mill-Rd-20817/home/10663311,,,N,Y,39.0224131,-77.1293035
PAST SALE,September-27-2023,Single Family Residential,4700 Chevy Chase Blvd,Chevy Chase,MD,20815,1825000,4,4.5,CHEVY CHASE TERRACE,5150,7204,1995,,354,,Sold,,,https://www.redfin.com/MD/Chevy-Chase/4700-Chevy-Chase-Blvd-20815/home/10701043,BRIGHT MLS,MDMC2101450,N,Y,38.9732319,-77.0925545
PAST SALE,June-23-2023,Single Family Residential,7308 Helmsdale Rd,Bethesda,MD,20817,2390000,5,4.5,BANNOCKBURN ESTATES,5661,23100,1963,,422,,Sold,,,https://www.redfin.com/MD/Bethesda/7308-Helmsdale-Rd-20817/home/10679070,BRIGHT MLS,MDMC2088096,N,Y,38.984483,-77.1514149
PAST SALE,May-30-2023,Single Family Residential,9509 Wildoak Dr,Bethesda,MD,20814,2000000,5,4.5,BETHESDA OUT RES. (1),4828,7358,2022,,414,50,Sold,,,https://www.redfin.com/MD/Bethesda/9509-Wildoak-Dr-20814/home/174561156,BRIGHT MLS,MDMC2090112,N,Y,39.0126783,-77.1096155
PAST SALE,September-27-2023,Single Family Residential,5607 Roosevelt St,Bethesda,MD,20817,2510054,6,5.5,HUNTINGTON TERRACE,812,9000,2023,,3091,,Sold,,,https://www.redfin.com/MD/Bethesda/5607-Roosevelt-St-20817/home/10649796,BRIGHT MLS,MDMC2091044,N,Y,38.9951128,-77.1148749
PAST SALE,,Single Family Residential,7819 Exeter Rd,Bethesda,MD,20814,1250000,,2,,1563,9158,1936,,800,,,,,https://www.redfin.com/MD/Bethesda/7819-Exeter-Rd-20814/home/10638569,,,N,Y,38.9887626,-77.1022767
PAST SALE,,Townhouse,608 Brookes Ridge Ct,Bethesda,MD,20816,2150000,4,4.5,,4250,2719,2017,,506,,,,,https://www.redfin.com/MD/Bethesda/608-Brookes-Ridge-Ct-20816/home/110057928,,,N,Y,38.9469479,-77.1215775
PAST SALE,September-27-2023,Single Family Residential,4725 Cumberland Ave,Chevy Chase,MD,20815,2950000,6,4.5,SOMERSET HEIGHTS,2488,9285,1922,,1186,,Sold,,,https://www.redfin.com/MD/Chevy-Chase/4725-Cumberland-Ave-20815/home/10653464,BRIGHT MLS,MDMC2109100,N,Y,38.9695022,-77.0952296
PAST SALE,August-21-2023,Single Family Residential,4549 Chelsea Ln S,Bethesda,MD,20814,2340000,4,5,GLENBROOK VILLAGE,4100,5280,2019,,571,,Sold,,,https://www.redfin.com/MD/Bethesda/4549-S-Chelsea-Ln-20814/home/10647371,BRIGHT MLS,MDMC2105380,N,Y,38.9944163,-77.0912956
PAST SALE,June-14-2023,Single Family Residential,6925 Silver Linden St,Bethesda,MD,20817,1928368,4,4.5,AMALYN,5072,6201,2023,,380,366,Sold,,,https://www.redfin.com/MD/Bethesda/6925-Silver-Linden-St-20817/home/178427761,BRIGHT MLS,MDMC2098366,N,Y,39.016125,-77.143587
PAST SALE,,Townhouse,8511 Halston Way,Bethesda,MD,20814,1125000,,4,,3070,1728,2000,,366,,,,,https://www.redfin.com/MD/Bethesda/8511-Halston-Way-20814/home/10701717,,,N,Y,38.9949076,-77.095859
PAST SALE,July-14-2023,Single Family Residential,4534 Rosedale Ave,Bethesda,MD,20814,910000,3,2,ROSEDALE PARK,1440,4000,1948,,632,,Sold,,,https://www.redfin.com/MD/Bethesda/4534-Rosedale-Ave-20814/home/10652248,BRIGHT MLS,MDMC2093386,N,Y,38.9925503,-77.0916328
PAST SALE,July-7-2023,Single Family Residential,4909 Fort Sumner Dr,Bethesda,MD,20816,1100000,4,4,SUMNER,3006,8690,1950,,366,,Sold,,,https://www.redfin.com/MD/Bethesda/4909-Fort-Sumner-Dr-20816/home/10666668,BRIGHT MLS,MDMC2096050,N,Y,38.9552443,-77.1125824
PAST SALE,May-9-2023,Single Family Residential,6908 Greyswood Rd,Bethesda,MD,20817,1648950,0,0.5,AMALYN,,5648,2023,,,271,Sold,,,https://www.redfin.com/MD/Bethesda/6908-Greyswood-Rd-20817/home/178427790,BRIGHT MLS,MDMC2092816,N,Y,39.017366,-77.142124
PAST SALE,May-19-2023,Single Family Residential,6815 Barr Rd,Bethesda,MD,20816,850000,3,2,FAIRWAY HILLS,2005,7350,1938,,424,,Sold,,,https://www.redfin.com/MD/Bethesda/6815-Barr-Rd-20816/home/10671895,BRIGHT MLS,MDMC2093912,N,Y,38.9717672,-77.1395058
PAST SALE,September-7-2023,Townhouse,6914 Viceroy Aly,Bethesda,MD,20817,1265345,3,3.5,AMALYN,2908,2208,2023,,435,341,Sold,,,https://www.redfin.com/MD/Bethesda/6914-Viceroy-Aly-20817/home/178427807,BRIGHT MLS,MDMC2109582,N,Y,39.016731,-77.141732
PAST SALE,,Single Family Residential,6305 Landon Ln,Bethesda,MD,20817,2606775,,5.5,,6607,11495,2008,,395,,,,,https://www.redfin.com/MD/Bethesda/6305-Landon-Ln-20817/home/10669488,,,N,Y,38.9854042,-77.1275281
PAST SALE,,Single Family Residential,9226 Laurel Oak Dr,Bethesda,MD,20817,1200000,,2.5,,2716,28320,1958,,442,,,,,https://www.redfin.com/MD/Bethesda/9226-Laurel-Oak-Dr-20817/home/10886732,,,N,Y,39.008161,-77.163227
PAST SALE,,Single Family Residential,6212 Leeke Forest Ct,Bethesda,MD,20817,1250000,,2.5,,2309,6000,1972,,541,,,,,https://www.redfin.com/MD/Bethesda/6212-Leeke-Forest-Ct-20817/home/10659599,,,N,Y,39.0045795,-77.12763
PAST SALE,,Single Family Residential,104 Valley Rd,Bethesda,MD,20816,825000,,1.5,,1440,4830,1973,,573,,,,,https://www.redfin.com/MD/Bethesda/104-Valley-Rd-20816/home/10640117,,,N,Y,38.9451697,-77.1225614
PAST SALE,,Single Family Residential,7120 Greentree Rd,Bethesda,MD,20817,928745,,2,,1661,22815,1946,,559,,,,,https://www.redfin.com/MD/Bethesda/7120-Greentree-Rd-20817/home/10636874,,,N,Y,39.0143935,-77.1461121
PAST SALE,August-22-2023,Townhouse,7034 Artesa Ln,Bethesda,MD,20817,1563201,4,3.5,AMALYN,,3496,2023,,,338,Sold,,,https://www.redfin.com/MD/Bethesda/7034-Artesa-Ln-20817/home/178427751,BRIGHT MLS,MDMC2105404,N,Y,39.016466,-77.143683
PAST SALE,May-5-2023,Single Family Residential,7502 Nevis Rd,Bethesda,MD,20817,1005000,4,3,FLINT HILL COMMUNITY,1844,30909,1961,,545,,Sold,,,https://www.redfin.com/MD/Bethesda/7502-Nevis-Rd-20817/home/10636205,BRIGHT MLS,MDMC2087250,N,Y,38.9848485,-77.1453481
PAST SALE,August-31-2023,Single Family Residential,8725 Ridge Rd,Bethesda,MD,20817,950000,4,2.5,HILLMEAD,1840,11311,1947,,516,,Sold,,,https://www.redfin.com/MD/Bethesda/8725-Ridge-Rd-20817/home/10664262,BRIGHT MLS,MDMC2105570,N,Y,38.9998367,-77.1240829
PAST SALE,May-5-2023,Single Family Residential,5213 Rayland Dr,Bethesda,MD,20814,1260000,4,3.5,GLENBROOK KNOLLS,1996,5481,1951,,631,,Sold,,,https://www.redfin.com/MD/Bethesda/5213-Rayland-Dr-20814/home/10647100,BRIGHT MLS,MDMC2092506,N,Y,38.9930646,-77.1058843
PAST SALE,July-28-2023,Single Family Residential,5101 Waukesha Rd,Bethesda,MD,20816,1525000,5,3.5,GLEN ECHO HEIGHTS,3264,8347,1979,,467,,Sold,,,https://www.redfin.com/MD/Bethesda/5101-Waukesha-Rd-20816/home/10648832,BRIGHT MLS,MDMC2102240,N,Y,38.95602,-77.1259774
PAST SALE,June-22-2023,Single Family Residential,6830 Penngrove Ln,Bethesda,MD,20817,2012231,4,4.5,AMALYN,4950,5648,2023,,407,367,Sold,,,https://www.redfin.com/MD/Bethesda/6830-Penngrove-Ln-20817/home/178427912,BRIGHT MLS,MDMC2101632,N,Y,39.015434,-77.139916
PAST SALE,August-10-2023,Single Family Residential,9611 Culver St,Kensington,MD,20895,1350000,4,3.5,ROCK CREEK HIGHLANDS,2988,11660,1961,,452,,Sold,,,https://www.redfin.com/MD/Kensington/9611-Culver-St-20895/home/11062045,BRIGHT MLS,MDMC2097524,N,Y,39.010374,-77.0854731
PAST SALE,,Single Family Residential,5510 Northfield Rd,Bethesda,MD,20817,2305000,,5.5,,4686,7554,2015,,492,,,,,https://www.redfin.com/MD/Bethesda/5510-Northfield-Rd-20817/home/10646715,,,N,Y,38.9934783,-77.1120879
PAST SALE,September-7-2023,Single Family Residential,6105 Durbin Rd,Bethesda,MD,20817,1170000,4,2,KENWOOD PARK,3156,15515,1962,,371,,Sold,,,https://www.redfin.com/MD/Bethesda/6105-Durbin-Rd-20817/home/10668187,BRIGHT MLS,MDMC2103606,N,Y,38.9816519,-77.1224715
PAST SALE,,Townhouse,8605 Terrace Garden Way,Bethesda,MD,20814,1259000,,3,,3220,1728,2000,,391,,,,,https://www.redfin.com/MD/Bethesda/8605-Terrace-Garden-Way-20814/home/10701806,,,N,Y,38.9957193,-77.0959489
PAST SALE,August-6-2023,Single Family Residential,5812 Sonoma Rd,Bethesda,MD,20817,2030000,5,4.5,AYRLAWN,,6688,2023,,,,Sold,,,https://www.redfin.com/MD/Bethesda/5812-Sonoma-Rd-20817/home/10661294,BRIGHT MLS,MDMC2102954,N,Y,39.0018721,-77.1172574
PAST SALE,,Single Family Residential,5619 Greentree Rd,Bethesda,MD,20817,1350000,,4,,3498,7965,1936,,386,,,,,https://www.redfin.com/MD/Bethesda/5619-Greentree-Rd-20817/home/10652925,,,N,Y,39.0007649,-77.1142972
PAST SALE,,Condo/Co-op,4931 Crescent St Unit B-14,Bethesda,MD,20816,1019000,,,,1662,,1967,,613,,,,,https://www.redfin.com/MD/Bethesda/4931-Crescent-St-20816/unit-B-14/home/10636154,,,N,Y,38.9543798,-77.0955443
PAST SALE,September-27-2023,Single Family Residential,6815 Isabella,Bethesda,MD,20817,1979177,5,4,Bethesda,,6204,2023,,,250,Sold,,,https://www.redfin.com/MD/Bethesda/6815-Isabella-St-20817/home/178427880,BRIGHT MLS,MDMC2108760,N,Y,39.0151337,-77.1391662
PAST SALE,,Condo/Co-op,9715 Whitley Park Pl Unit TH-11,Bethesda,MD,20814,950000,,3,,3032,,1990,,313,,,,,https://www.redfin.com/MD/Bethesda/9715-Whitley-Park-Pl-20814/unit-TH-11/home/10700580,,,N,Y,39.014899,-77.108914
PAST SALE,August-23-2023,Single Family Residential,6924 Silver Linden St,Bethesda,MD,20817,1939267,5,4,AMALYN,,6131,2023,,,366,Sold,,,https://www.redfin.com/MD/Bethesda/6924-Silver-Linden-St-20817/home/178427772,BRIGHT MLS,MDMC2104568,N,Y,39.015671,-77.14349
PAST SALE,September-8-2023,Townhouse,8179 River,Bethesda,MD,20817,2200000,4,4,POTOMAC OUTSIDE,,1486,2023,,,536,Sold,,,https://www.redfin.com/MD/Bethesda/8179-River-Rd-20817/home/167703041,BRIGHT MLS,MDMC2107224,N,Y,38.9957634,-77.1669251
PAST SALE,July-10-2023,Single Family Residential,10031 Sinnott Dr,Bethesda,MD,20817,680000,3,2,MARYMOUNT,1660,6000,1955,,410,,Sold,,,https://www.redfin.com/MD/Bethesda/10031-Sinnott-Dr-20817/home/10675705,BRIGHT MLS,MDMC2099808,N,Y,39.0221369,-77.127191
PAST SALE,October-3-2023,Single Family Residential,5519 Southwick St,Bethesda,MD,20817,840000,2,2,HUNTINGTON TERRACE,1232,6625,1935,,682,,Sold,,,https://www.redfin.com/MD/Bethesda/5519-Southwick-St-20817/home/10649553,BRIGHT MLS,MDMC2105660,N,Y,38.9995601,-77.1112788
PAST SALE,June-16-2023,Single Family Residential,5211 Dorset Ave,Chevy Chase,MD,20815,4250000,5,4.5,KENWOOD,5500,12618,1953,,773,,Sold,,,https://www.redfin.com/MD/Chevy-Chase/5211-Dorset-Ave-20815/home/10650285,BRIGHT MLS,MDMC2092914,N,Y,38.9693566,-77.1046705
PAST SALE,April-28-2023,Single Family Residential,5804 Marbury Rd,Bethesda,MD,20817,1710000,4,3,KENWOOD PARK,3283,12493,1968,,521,,Sold,,,https://www.redfin.com/MD/Bethesda/5804-Marbury-Rd-20817/home/10668669,BRIGHT MLS,MDMC2088354,N,Y,38.9790338,-77.1159088
PAST SALE,October-16-2023,Single Family Residential,6409 Crane Ter,Bethesda,MD,20817,1335000,4,2.5,WOODHAVEN,3135,9750,1961,,426,,Sold,,,https://www.redfin.com/MD/Bethesda/6409-Crane-Ter-20817/home/10670238,BRIGHT MLS,MDMC2105058,N,Y,38.9904534,-77.130562
PAST SALE,August-21-2023,Single Family Residential,8517 Whittier Blvd,Bethesda,MD,20817,1400000,5,3.5,BRADLEY PARK,3468,12241,1968,,404,,Sold,,,https://www.redfin.com/MD/Bethesda/8517-Whittier-Blvd-20817/home/10675764,BRIGHT MLS,MDMC2099718,N,Y,38.9965485,-77.1304047
PAST SALE,June-8-2023,Single Family Residential,5306 Kenwood Ave,Chevy Chase,MD,20815,4025000,6,6.5,KENWOOD,6636,20335,1941,,607,,Sold,,,https://www.redfin.com/MD/Chevy-Chase/5306-Kenwood-Ave-20815/home/10650331,BRIGHT MLS,MDMC2091864,N,Y,38.9708413,-77.107188
PAST SALE,August-5-2023,Single Family Residential,5208 Danbury Rd,Bethesda,MD,20814,2890000,5,5.5,MAPLEWOOD,,5882,2023,,,,Sold,,,https://www.redfin.com/MD/Bethesda/5208-Danbury-Rd-20814/home/10657852,BRIGHT MLS,MDMC2098302,N,Y,39.0084227,-77.1038164
PAST SALE,June-16-2023,Single Family Residential,5309 Tuscarawas Rd,Bethesda,MD,20816,2400000,4,3.5,GLEN ECHO HEIGHTS,3299,15538,1959,,727,,Sold,,,https://www.redfin.com/MD/Bethesda/5309-Tuscarawas-Rd-20816/home/10649183,BRIGHT MLS,MDMC2089366,N,Y,38.9608329,-77.1274157
PAST SALE,June-9-2023,Single Family Residential,6409 Elmwood Rd,Chevy Chase,MD,20815,3100000,4,4,KENWOOD,4266,13465,1931,,727,,Sold,,,https://www.redfin.com/MD/Chevy-Chase/6409-Elmwood-Rd-20815/home/10650411,BRIGHT MLS,MDMC2090814,N,Y,38.9743538,-77.1056146
PAST SALE,August-17-2023,Single Family Residential,5602 Pollard Rd,Bethesda,MD,20816,975000,3,2,SPRINGFIELD,2322,8834,1951,,420,,Sold,,,https://www.redfin.com/MD/Bethesda/5602-Pollard-Rd-20816/home/10665723,BRIGHT MLS,MDMC2095460,N,Y,38.9685535,-77.1139759
PAST SALE,August-18-2023,Single Family Residential,4419 Chalfont Pl,Bethesda,MD,20816,1769000,3,3.5,WESTMORELAND HILLS,3912,4854,1975,,452,163,Sold,,,https://www.redfin.com/MD/Bethesda/4419-Chalfont-Pl-20816/home/10655342,BRIGHT MLS,MDMC2101690,N,Y,38.9466061,-77.1115757
PAST SALE,May-24-2023,Single Family Residential,5103 Duvall Dr,Bethesda,MD,20816,1935000,4,4,WESTMORELAND HILLS,2934,6418,1936,,660,,Sold,,,https://www.redfin.com/MD/Bethesda/5103-Duvall-Dr-20816/home/10655490,BRIGHT MLS,MDMC2089474,N,Y,38.9502923,-77.1023778
PAST SALE,August-25-2023,Single Family Residential,6440 Brookes Ln,Bethesda,MD,20816,1750000,5,3.5,BETHESDA OUT RES.(2),3329,6007,1956,,526,,Sold,,,https://www.redfin.com/MD/Bethesda/6440-Brookes-Ln-20816/home/10638254,BRIGHT MLS,MDMC2103234,N,Y,38.9467985,-77.1195498
PAST SALE,September-1-2023,Single Family Residential,5929 Beech Ave,Bethesda,MD,20817,950000,3,2,ALTA VISTA TERRACE,1818,6755,1951,,523,,Sold,,,https://www.redfin.com/MD/Bethesda/5929-Beech-Ave-20817/home/10677955,BRIGHT MLS,MDMC2103054,N,Y,39.0069633,-77.1212129
PAST SALE,September-28-2023,Single Family Residential,7838 Aberdeen Rd,Bethesda,MD,20814,1800000,4,3.5,ENGLISH VILLAGE,3464,11064,1951,,520,,Sold,,,https://www.redfin.com/MD/Bethesda/7838-Aberdeen-Rd-20814/home/10646294,BRIGHT MLS,MDMC2099378,N,Y,38.9886795,-77.1146951
PAST SALE,July-26-2023,Single Family Residential,5120 Wessling Ln,Bethesda,MD,20814,4000000,6,6,BRADLEY HILLS,6710,8420,2015,,596,,Sold,,,https://www.redfin.com/MD/Bethesda/5120-Wessling-Ln-20814/home/10639153,BRIGHT MLS,MDMC2099402,N,Y,38.9789612,-77.1043334
PAST SALE,May-25-2023,Single Family Residential,7712 Maryknoll Ave,Bethesda,MD,20817,1400000,3,2.5,MARY KNOLLS,2646,11624,1959,,529,,Sold,,,https://www.redfin.com/MD/Bethesda/7712-Maryknoll-Ave-20817/home/10676947,BRIGHT MLS,MDMC2090498,N,Y,38.9891369,-77.1367193
PAST SALE,April-28-2023,Single Family Residential,7614 Carteret Rd,Bethesda,MD,20817,950000,5,3.5,BURNING TREE ESTATES,3400,16151,1977,,279,,Sold,,,https://www.redfin.com/MD/Bethesda/7614-Carteret-Rd-20817/home/10887620,BRIGHT MLS,MDMC2083734,N,Y,39.0054275,-77.1559085
PAST SALE,June-28-2023,Single Family Residential,9510 Kentstone Dr,Bethesda,MD,20817,925000,4,2,WYNGATE,1454,7974,1940,,636,,Sold,,,https://www.redfin.com/MD/Bethesda/9510-Kentstone-Dr-20817/home/10659064,BRIGHT MLS,MDMC2092112,N,Y,39.0114407,-77.1193251
PAST SALE,July-28-2023,Single Family Residential,5913 Madawaska Rd,Bethesda,MD,20816,1030000,3,2,GLEN MAR PARK,1673,8071,1950,,616,,Sold,,,https://www.redfin.com/MD/Bethesda/5913-Madawaska-Rd-20816/home/10656768,BRIGHT MLS,MDMC2096590,N,Y,38.9582897,-77.1204488
PAST SALE,October-10-2023,Single Family Residential,6008 Bryn Mawr Ave,Glen Echo,MD,20812,699000,3,2,GLEN ECHO,1044,3755,1953,,670,,Sold,,,https://www.redfin.com/MD/Glen-Echo/6008-Bryn-Mawr-Ave-20812/home/10649284,BRIGHT MLS,MDMC2108592,N,Y,38.9697764,-77.1431348
PAST SALE,July-31-2023,Single Family Residential,7600 Massena Rd,Bethesda,MD,20817,1145000,3,2.5,COHASSET,1698,,1957,,674,,Sold,,,https://www.redfin.com/MD/Bethesda/7600-Massena-Rd-20817/home/10674006,BRIGHT MLS,MDMC2099536,N,Y,38.986757,-77.1387418
PAST SALE,August-7-2023,Single Family Residential,6765 Brigadoon Dr,Bethesda,MD,20817,1600000,4,4.5,WILSON KNOLLS,3362,16374,1957,,476,,Sold,,,https://www.redfin.com/MD/Bethesda/6765-Brigadoon-Dr-20817/home/10673512,BRIGHT MLS,MDMC2100172,N,Y,38.9769794,-77.136989
PAST SALE,May-5-2023,Single Family Residential,5917 Ramsgate Rd,Bethesda,MD,20816,1375000,3,3.5,WOODACRES,2587,7200,1948,,532,,Sold,,,https://www.redfin.com/MD/Bethesda/5917-Ramsgate-Rd-20816/home/10658305,BRIGHT MLS,MDMC2089758,N,Y,38.9695293,-77.1255729
PAST SALE,September-29-2023,Single Family Residential,5608 Brite Dr,Bethesda,MD,20817,1275000,5,3,BRADLEY HILLS,2146,15970,1951,,594,,Sold,,,https://www.redfin.com/MD/Bethesda/5608-Brite-Dr-20817/home/10638952,BRIGHT MLS,MDMC2105712,N,Y,38.979063,-77.1136613
PAST SALE,June-27-2023,Single Family Residential,8024 Park Ln,Bethesda,MD,20814,1535000,3,3.5,BATTERY PARK,2100,7206,1938,,731,,Sold,,,https://www.redfin.com/MD/Bethesda/8024-Park-Ln-20814/home/10638648,BRIGHT MLS,MDMC2093266,N,Y,38.9903992,-77.1060641
PAST SALE,June-15-2023,Single Family Residential,6521 E Halbert Rd E,Bethesda,MD,20817,1248000,4,3,BANNOCKBURN COOP,2100,8838,1956,,594,,Sold,,,https://www.redfin.com/MD/Bethesda/6521-E-Halbert-Rd-20817/home/10678288,BRIGHT MLS,MDMC2092616,N,Y,38.976203,-77.1397305
PAST SALE,July-28-2023,Single Family Residential,7027 Longwood Dr,Bethesda,MD,20817,4995000,5,6.5,LONGWOOD,7861,23153,2023,,635,,Sold,,,https://www.redfin.com/MD/Bethesda/7027-Longwood-Dr-20817/home/10636273,BRIGHT MLS,MDMC2090918,N,Y,39.010452,-77.14357
PAST SALE,September-22-2023,Single Family Residential,5906 Ramsgate Rd,Bethesda,MD,20816,1375000,4,2.5,WOODACRES,2391,7200,1948,,575,,Sold,,,https://www.redfin.com/MD/Bethesda/5906-Ramsgate-Rd-20816/home/10658447,BRIGHT MLS,MDMC2104830,N,Y,38.968938,-77.1260224
PAST SALE,October-6-2023,Single Family Residential,7606 Geranium St,Bethesda,MD,20817,2615000,5,4.5,OAKWOOD KNOLLS,5764,9020,2014,,454,,Sold,,,https://www.redfin.com/MD/Bethesda/7606-Geranium-St-20817/home/10669460,BRIGHT MLS,MDMC2105582,N,Y,38.9858053,-77.1282472
PAST SALE,September-15-2023,Single Family Residential,100 Lucas Ln,Bethesda,MD,20814,839000,4,3,GLENBROOK KNOLLS,2425,5840,1934,,346,,Sold,,,https://www.redfin.com/MD/Bethesda/100-Lucas-Ln-20814/home/10647095,BRIGHT MLS,MDMC2102032,N,Y,38.9919158,-77.1055584
PAST SALE,September-27-2023,Single Family Residential,6105 Kennedy Dr,Chevy Chase,MD,20815,6879000,7,6,KENWOOD,7360,14503,2022,,935,,Sold,,,https://www.redfin.com/MD/Chevy-Chase/6105-Kennedy-Dr-20815/home/10650325,BRIGHT MLS,MDMC2106792,N,Y,38.9711649,-77.1025576
PAST SALE,August-24-2023,Single Family Residential,7920 Deepwell Dr,Bethesda,MD,20817,1595000,3,3,POTOMAC OUTSIDE,2486,32615,1953,,642,,Sold,,,https://www.redfin.com/MD/Bethesda/7920-Deepwell-Dr-20817/home/10884832,BRIGHT MLS,MDMC2099920,N,Y,39.0079172,-77.1649403
PAST SALE,July-7-2023,Single Family Residential,7825 Fulbright Ct,Bethesda,MD,20817,1500000,4,3,MARY KNOLLS,3229,18406,1961,,465,,Sold,,,https://www.redfin.com/MD/Bethesda/7825-Fulbright-Ct-20817/home/10676997,BRIGHT MLS,MDMC2097554,N,Y,38.9911112,-77.1371688
PAST SALE,May-4-2023,Single Family Residential,6415 Hollins Dr,Bethesda,MD,20817,993500,5,3,ASHBURTON,2740,7747,1961,,363,,Sold,,,https://www.redfin.com/MD/Bethesda/6415-Hollins-Dr-20817/home/10670904,BRIGHT MLS,MDMC2087058,N,Y,39.0120058,-77.1308316
PAST SALE,June-5-2023,Single Family Residential,4900 Rockmere Ct,Bethesda,MD,20816,3200000,5,5,SUMNER,5820,15875,1957,,550,,Sold,,,https://www.redfin.com/MD/Bethesda/4900-Rockmere-Ct-20816/home/10666859,BRIGHT MLS,MDMC2091284,N,Y,38.9530949,-77.116673
PAST SALE,June-6-2023,Single Family Residential,5220 Nahant St,Bethesda,MD,20816,2726000,5,5.5,GLEN MAR PARK,5725,7630,2007,,476,,Sold,,,https://www.redfin.com/MD/Bethesda/5220-Nahant-St-20816/home/10656756,BRIGHT MLS,MDMC2089860,N,Y,38.9596704,-77.1189879
PAST SALE,July-11-2023,Single Family Residential,6004 Benalder Dr,Bethesda,MD,20816,855000,4,2,FAIRWAY HILLS,1492,6600,1942,,573,,Sold,,,https://www.redfin.com/MD/Bethesda/6004-Benalder-Dr-20816/home/10671878,BRIGHT MLS,MDMC2096996,N,Y,38.9698675,-77.1390114
PAST SALE,June-22-2023,Single Family Residential,5631 Knollwood Rd,Bethesda,MD,20816,1096750,3,2,SPRINGFIELD,1967,8351,1954,,558,,Sold,,,https://www.redfin.com/MD/Bethesda/5631-Knollwood-Rd-20816/home/10665749,BRIGHT MLS,MDMC2093336,N,Y,38.9632859,-77.1152795
PAST SALE,July-7-2023,Single Family Residential,10124 Parkwood Ter,Bethesda,MD,20814,2050000,6,5.5,PARKWOOD,5978,12524,2015,,343,,Sold,,,https://www.redfin.com/MD/Bethesda/10124-Parkwood-Ter-20814/home/10996282,BRIGHT MLS,MDMC2095396,N,Y,39.0238433,-77.095904
PAST SALE,July-14-2023,Single Family Residential,10101 Broad St,Bethesda,MD,20814,2300000,5,6,NORTH BETHESDA,5278,7726,2021,,436,,Sold,,,https://www.redfin.com/MD/Bethesda/10101-Broad-St-20814/home/10677110,BRIGHT MLS,MDMC2089888,N,Y,39.0213107,-77.1155043
PAST SALE,July-3-2023,Single Family Residential,8217 Burning Tree Rd,Bethesda,MD,20817,2300000,4,4.5,BURNING TREE VIEW,5539,23690,1968,,415,,Sold,,,https://www.redfin.com/MD/Bethesda/8217-Burning-Tree-Rd-20817/home/10637715,BRIGHT MLS,MDMC2094806,N,Y,38.9951912,-77.1471457
PAST SALE,May-24-2023,Single Family Residential,5827 Phoenix Dr,Bethesda,MD,20817,1850000,5,4.5,ALTA VISTA TERRACE,5197,8421,2006,,356,,Sold,,,https://www.redfin.com/MD/Bethesda/5827-Phoenix-Dr-20817/home/10678167,BRIGHT MLS,MDMC2088670,N,Y,39.0068316,-77.1175271
PAST SALE,July-24-2023,Townhouse,8326 N Brook Ln,Bethesda,MD,20814,840000,4,3.5,GLENBROOK KNOLLS,2192,1135,1967,,383,222,Sold,,,https://www.redfin.com/MD/Bethesda/8326-N-Brook-Ln-20814/home/10688787,BRIGHT MLS,MDMC2097112,N,Y,38.993357,-77.104235
PAST SALE,June-16-2023,Single Family Residential,6212 Dahlonega Rd,Bethesda,MD,20816,2500000,5,4.5,GLEN ECHO HEIGHTS,6647,11375,2009,,376,,Sold,,,https://www.redfin.com/MD/Bethesda/6212-Dahlonega-Rd-20816/home/10649257,BRIGHT MLS,MDMC2092486,N,Y,38.9655047,-77.1268764
PAST SALE,October-2-2023,Single Family Residential,4515 Sleaford Rd,Bethesda,MD,20814,1225000,3,3,WESTBORO,2125,5087,1941,,576,,Sold,,,https://www.redfin.com/MD/Bethesda/4515-Sleaford-Rd-20814/home/10653940,BRIGHT MLS,MDMC2105948,N,Y,38.9882707,-77.090284
PAST SALE,May-25-2023,Single Family Residential,6825 Capri Pl,Bethesda,MD,20817,2275000,4,4,THE PALISADES,6900,74470,1983,,330,,Sold,,,https://www.redfin.com/MD/Bethesda/6825-Capri-Pl-20817/home/10911872,BRIGHT MLS,MDMC2086820,N,Y,38.980763,-77.1801041
PAST SALE,October-25-2023,Single Family Residential,5001 Earlston Dr,Bethesda,MD,20816,1418000,3,3.5,WESTGATE,2900,9263,1938,,489,,Sold,,,https://www.redfin.com/MD/Bethesda/5001-Earlston-Dr-20816/home/10654467,BRIGHT MLS,MDMC2105746,N,Y,38.9562651,-77.1014562
PAST SALE,September-28-2023,Townhouse,4931 Crescent St,Bethesda,MD,20816,1019000,4,3.5,THE CREST,2493,,1967,,409,400,Sold,,,https://www.redfin.com/MD/Bethesda/4931-Crescent-St-20816/home/187381449,BRIGHT MLS,MDMC2106476,N,Y,38.9543798,-77.0955443
PAST SALE,September-29-2023,Single Family Residential,6205 Stardust Ln,Bethesda,MD,20817,925000,6,3,COUNTRY CLUB FOREST,2828,8384,1958,,327,,Sold,,,https://www.redfin.com/MD/Bethesda/6205-Stardust-Ln-20817/home/10680715,BRIGHT MLS,MDMC2107344,N,Y,38.9739751,-77.1258875
PAST SALE,June-13-2023,Single Family Residential,6411 Winston Dr,Bethesda,MD,20817,1225200,3,3,COUNTRY CLUB VILLAGE,1954,11993,1955,,627,,Sold,,,https://www.redfin.com/MD/Bethesda/6411-Winston-Dr-20817/home/10676401,BRIGHT MLS,MDMC2088598,N,Y,38.9738911,-77.1312361
PAST SALE,June-23-2023,Townhouse,6648 Hillandale Rd #48,Chevy Chase,MD,20815,825000,3,3.5,KENWOOD FOREST II,1408,,1951,,586,613,Sold,,,https://www.redfin.com/MD/Chevy-Chase/6648-Hillandale-Rd-20815/unit-48/home/10688961,BRIGHT MLS,MDMC2090588,N,Y,38.97660225,-77.0984952
PAST SALE,May-30-2023,Single Family Residential,5219 Belvoir Dr,Bethesda,MD,20816,925000,3,2.5,GLEN MAR PARK,1802,8028,1952,,513,,Sold,,,https://www.redfin.com/MD/Bethesda/5219-Belvoir-Dr-20816/home/10656900,BRIGHT MLS,MDMC2090898,N,Y,38.9598387,-77.1162797
PAST SALE,October-6-2023,Single Family Residential,5600 Pollard Rd,Bethesda,MD,20816,955000,4,2.5,SPRINGFIELD,2086,9215,1951,,458,,Sold,,,https://www.redfin.com/MD/Bethesda/5600-Pollard-Rd-20816/home/10665602,BRIGHT MLS,MDMC2107432,N,Y,38.9683679,-77.1137512
PAST SALE,September-7-2023,Single Family Residential,4613 Hunt Ave,Chevy Chase,MD,20815,2245000,5,5.5,CHEVY CHASE GARDENS,5200,6059,1929,,432,,Sold,,,https://www.redfin.com/MD/Chevy-Chase/4613-Hunt-Ave-20815/home/10643900,BRIGHT MLS,MDMC2097644,N,Y,38.9708778,-77.0906886
PAST SALE,June-28-2023,Single Family Residential,7509 Royal Dominion Dr,Bethesda,MD,20817,1677000,5,4.5,AL MARAH,5165,16603,1983,,325,,Sold,,,https://www.redfin.com/MD/Bethesda/7509-Royal-Dominion-Dr-20817/home/10687832,BRIGHT MLS,MDMC2096302,N,Y,38.9873695,-77.1542908
PAST SALE,July-14-2023,Single Family Residential,4860 Chevy Chase Blvd,Chevy Chase,MD,20815,2125000,5,2.5,CHEVY CHASE TERRACE,3508,6382,1927,,606,,Sold,,,https://www.redfin.com/MD/Chevy-Chase/4860-Chevy-Chase-Blvd-20815/home/10644117,BRIGHT MLS,MDMC2093078,N,Y,38.97464,-77.0967132
PAST SALE,August-4-2023,Single Family Residential,6828 Granby St,Bethesda,MD,20817,2910000,5,5.5,KENWOOD PARK,6223,12064,2017,,468,,Sold,,,https://www.redfin.com/MD/Bethesda/6828-Granby-St-20817/home/10668890,BRIGHT MLS,MDMC2097574,N,Y,38.9792177,-77.1188081
PAST SALE,October-5-2023,Single Family Residential,8229 Stone Trail Dr,Bethesda,MD,20817,1200000,4,2.5,CARDEROCK SPRINGS,3300,15373,1967,,364,,Sold,,,https://www.redfin.com/MD/Bethesda/8229-Stone-Trail-Dr-20817/home/10889399,BRIGHT MLS,MDMC2107318,N,Y,38.9844215,-77.1695683
PAST SALE,July-28-2023,Single Family Residential,5414 Huntington Pkwy,Bethesda,MD,20814,1300000,3,3,GREENWICH FOREST,2272,9049,1938,,572,,Sold,,,https://www.redfin.com/MD/Bethesda/5414-Huntington-Pkwy-20814/home/10646798,BRIGHT MLS,MDMC2098058,N,Y,38.991774,-77.11011
PAST SALE,May-1-2023,Single Family Residential,7905 Kentbury Dr,Bethesda,MD,20814,1825000,5,4.5,COLUMBIA FOREST,4772,6600,2008,,382,,Sold,,,https://www.redfin.com/MD/Bethesda/7905-Kentbury-Dr-20814/home/10662958,BRIGHT MLS,MDMC2083156,N,Y,38.9884497,-77.0845514
PAST SALE,June-16-2023,Single Family Residential,8613 Long Acre Ct,Bethesda,MD,20817,1231000,4,2.5,HILLMEAD,2694,13734,1979,,457,,Sold,,,https://www.redfin.com/MD/Bethesda/8613-Long-Acre-Ct-20817/home/10687895,BRIGHT MLS,MDMC2094134,N,Y,38.997516,-77.1238199
PAST SALE,May-16-2023,Single Family Residential,7307 Nevis Rd,Bethesda,MD,20817,1730000,3,3,BANNOCKBURN,2650,69629,1957,,653,,Sold,,,https://www.redfin.com/MD/Bethesda/7307-Nevis-Rd-20817/home/10667110,BRIGHT MLS,MDMC2087932,N,Y,38.9829491,-77.1444943
PAST SALE,June-30-2023,Single Family Residential,6504 Wilson Ln,Bethesda,MD,20817,1350000,5,3.5,OAKWOOD KNOLLS,3857,9095,1971,,350,,Sold,,,https://www.redfin.com/MD/Bethesda/6504-Wilson-Ln-20817/home/10669291,BRIGHT MLS,MDMC2093824,N,Y,38.9865855,-77.1325396
PAST SALE,June-12-2023,Single Family Residential,5000 Westpath Ter,Bethesda,MD,20816,1599000,5,3.5,FORT SUMNER,3896,12272,1960,,410,,Sold,,,https://www.redfin.com/MD/Bethesda/5000-Westpath-Ter-20816/home/10675369,BRIGHT MLS,MDMC2091566,N,Y,38.9533852,-77.1244717
PAST SALE,June-23-2023,Single Family Residential,5807 Hillburne Way,Chevy Chase,MD,20815,2100000,3,4.5,KENWOOD,6550,15107,1953,,321,,Sold,,,https://www.redfin.com/MD/Chevy-Chase/5807-Hillburne-Way-20815/home/10650596,BRIGHT MLS,MDMC2095368,N,Y,38.9687691,-77.1078398
PAST SALE,May-24-2023,Single Family Residential,9007 Seneca Ln,Bethesda,MD,20817,995000,3,3,SONOMA,1915,9425,1935,,520,,Sold,,,https://www.redfin.com/MD/Bethesda/9007-Seneca-Ln-20817/home/10652978,BRIGHT MLS,MDMC2090150,N,Y,39.0026805,-77.1109764
PAST SALE,May-24-2023,Single Family Residential,5804 Sonoma Rd,Bethesda,MD,20817,1629000,5,3.5,AYRLAWN,3872,6803,1996,,421,,Sold,,,https://www.redfin.com/MD/Bethesda/5804-Sonoma-Rd-20817/home/10661053,BRIGHT MLS,MDMC2092092,N,Y,39.0018918,-77.116447
PAST SALE,July-31-2023,Single Family Residential,8513 Rosewood Dr,Bethesda,MD,20814,1475000,4,4,GLENWOOD,3000,10283,1942,,492,,Sold,,,https://www.redfin.com/MD/Bethesda/8513-Rosewood-Dr-20814/home/10657623,BRIGHT MLS,MDMC2098826,N,Y,38.9951486,-77.1055247
PAST SALE,August-17-2023,Single Family Residential,4317 Rosedale Ave,Bethesda,MD,20814,2195000,5,4.5,COLUMBIA FOREST,5797,10023,2004,,379,,Sold,,,https://www.redfin.com/MD/Bethesda/4317-Rosedale-Ave-20814/home/10663068,BRIGHT MLS,MDMC2097768,N,Y,38.9930401,-77.08617
PAST SALE,August-25-2023,Single Family Residential,5615 Ogden Rd,Bethesda,MD,20816,1320000,4,2.5,SPRINGFIELD,2476,11653,1957,,533,3,Sold,,,https://www.redfin.com/MD/Bethesda/5615-Ogden-Rd-20816/home/10665918,BRIGHT MLS,MDMC2102244,N,Y,38.9663478,-77.1132567
PAST SALE,September-29-2023,Single Family Residential,6700 Rannoch Rd,Bethesda,MD,20817,1450000,3,2.5,MASS AVE FOREST,2067,8802,1951,,701,,Sold,,,https://www.redfin.com/MD/Bethesda/6700-Rannoch-Rd-20817/home/10680331,BRIGHT MLS,MDMC2105176,N,Y,38.9715312,-77.1355958
PAST SALE,May-30-2023,Single Family Residential,4919 Chevy Chase Blvd,Chevy Chase,MD,20815,1540000,4,3,CHEVY CHASE TERRACE,2491,5630,1937,,618,,Sold,,,https://www.redfin.com/MD/Chevy-Chase/4919-Chevy-Chase-Blvd-20815/home/10644434,BRIGHT MLS,MDMC2090714,N,Y,38.9742852,-77.0963198
PAST SALE,June-27-2023,Single Family Residential,5508 Namakagan Rd,Bethesda,MD,20816,1510000,5,3,MASS AVE HILLS,2761,8335,1952,,547,,Sold,,,https://www.redfin.com/MD/Bethesda/5508-Namakagan-Rd-20816/home/10667433,BRIGHT MLS,MDMC2095150,N,Y,38.957896,-77.1119081
PAST SALE,October-18-2023,Single Family Residential,6939 Greentree Rd,Bethesda,MD,20817,2470000,5,4.5,BRADLEY MANOR,8445,18436,1965,,292,,Sold,,,https://www.redfin.com/MD/Bethesda/6939-Greentree-Rd-20817/home/10676260,BRIGHT MLS,MDMC2107218,N,Y,39.0102876,-77.1407417
PAST SALE,May-30-2023,Single Family Residential,7708 Massena Rd,Bethesda,MD,20817,2621000,6,6,COHASSET,7122,11097,2015,,368,,Sold,,,https://www.redfin.com/MD/Bethesda/7708-Massena-Rd-20817/home/10674080,BRIGHT MLS,MDMC2087998,N,Y,38.9881349,-77.137798
PAST SALE,May-30-2023,Single Family Residential,6203 Hollins Dr,Bethesda,MD,20817,960000,4,2.5,ASHBURTON,1906,7175,1958,,504,,Sold,,,https://www.redfin.com/MD/Bethesda/6203-Hollins-Dr-20817/home/10671491,BRIGHT MLS,MDMC2090246,N,Y,39.0131388,-77.1260898
PAST SALE,August-10-2023,Single Family Residential,6310 Tone Dr,Bethesda,MD,20817,1405000,4,4,MERRIMACK PARK,4098,7411,1955,,343,,Sold,,,https://www.redfin.com/MD/Bethesda/6310-Tone-Dr-20817/home/10669117,BRIGHT MLS,MDMC2097332,N,Y,38.9763966,-77.1292585
PAST SALE,July-28-2023,Single Family Residential,7707 Geranium St,Bethesda,MD,20817,3000000,5,6.5,OAKWOOD KNOLLS,6762,9075,2022,,444,,Sold,,,https://www.redfin.com/MD/Bethesda/7707-Geranium-St-20817/home/10669398,BRIGHT MLS,MDMC2097650,N,Y,38.9867348,-77.1281349
PAST SALE,June-21-2023,Single Family Residential,5615 Bent Branch Rd,Bethesda,MD,20816,1975000,5,4,TULIP HILL,4290,24861,1956,,460,,Sold,,,https://www.redfin.com/MD/Bethesda/5615-Bent-Branch-Rd-20816/home/10674754,BRIGHT MLS,MDMC2087538,N,Y,38.966471,-77.1346295
PAST SALE,July-21-2023,Single Family Residential,8817 Hawkins Ln,Chevy Chase,MD,20815,1246000,4,3.5,BETHESDA OUT RES.(2),2396,8548,1995,,520,,Sold,,,https://www.redfin.com/MD/Chevy-Chase/8817-Hawkins-Ln-20815/home/10637015,BRIGHT MLS,MDMC2095348,N,Y,39.0015864,-77.0828653
PAST SALE,June-23-2023,Single Family Residential,4801 Langdrum Ln,Chevy Chase,MD,20815,1925000,5,3.5,CHEVY CHASE GARDENS,3283,7307,1931,,586,,Sold,,,https://www.redfin.com/MD/Chevy-Chase/4801-Langdrum-Ln-20815/home/10643878,BRIGHT MLS,MDMC2092448,N,Y,38.971618,-77.094774
PAST SALE,July-6-2023,Single Family Residential,4218 Silverwood Ln,Bethesda,MD,20816,1560000,4,3.5,BROOKMONT,2424,8467,1987,,644,,Sold,,,https://www.redfin.com/MD/Bethesda/4218-Silverwood-Ln-20816/home/10697443,BRIGHT MLS,MDMC2095002,N,Y,38.9445222,-77.1196397
PAST SALE,May-2-2023,Townhouse,5107 King Charles Way,Bethesda,MD,20814,650000,2,3.5,GROSVENOR MEWS,1620,1660,1984,,401,166,Sold,,,https://www.redfin.com/MD/Bethesda/5107-King-Charles-Way-20814/home/10696704,BRIGHT MLS,MDMC2088272,N,Y,39.0207362,-77.1036629
PAST SALE,September-12-2023,Townhouse,6757 Surreywood Ln,Bethesda,MD,20817,720000,3,3,STRATTON COMMONS,2310,2002,1978,,312,97,Sold,,,https://www.redfin.com/MD/Bethesda/6757-Surreywood-Ln-20817/home/10686798,BRIGHT MLS,MDMC2103182,N,Y,39.0199311,-77.1399988
PAST SALE,August-31-2023,Single Family Residential,5808 Wyngate Dr,Bethesda,MD,20817,1471000,5,3.5,WYNGATE,3121,6900,1948,,471,,Sold,,,https://www.redfin.com/MD/Bethesda/5808-Wyngate-Dr-20817/home/10660131,BRIGHT MLS,MDMC2099482,N,Y,39.0107648,-77.1200892
PAST SALE,June-16-2023,Single Family Residential,9603 Montgomery Dr,Bethesda,MD,20814,1110500,5,3,PAGE HILL,2130,7200,1949,,521,,Sold,,,https://www.redfin.com/MD/Bethesda/9603-Montgomery-Dr-20814/home/10680346,BRIGHT MLS,MDMC2091788,N,Y,39.0135681,-77.1116528
PAST SALE,June-9-2023,Single Family Residential,9410 Wadsworth Dr,Bethesda,MD,20817,1220000,5,3,ASHBURTON,2594,9511,1958,,470,,Sold,,,https://www.redfin.com/MD/Bethesda/9410-Wadsworth-Dr-20817/home/10670746,BRIGHT MLS,MDMC2091906,N,Y,39.0111329,-77.1266067
PAST SALE,June-28-2023,Single Family Residential,6916 Carmichael Ave,Bethesda,MD,20817,1225000,3,2.5,BANNOCKBURN ESTATES,4400,26561,1966,,278,,Sold,,,https://www.redfin.com/MD/Bethesda/6916-Carmichael-Ave-20817/home/10678826,BRIGHT MLS,MDMC2083552,N,Y,38.9772762,-77.1486287
PAST SALE,August-31-2023,Single Family Residential,6317 Haviland Dr,Bethesda,MD,20817,1200000,4,3,WOODBURN,2584,7144,1959,,464,,Sold,,,https://www.redfin.com/MD/Bethesda/6317-Haviland-Dr-20817/home/10675178,BRIGHT MLS,MDMC2101612,N,Y,38.9735587,-77.1243144
PAST SALE,June-15-2023,Single Family Residential,5910 Woodacres Dr,Bethesda,MD,20816,1363000,3,3.5,WOODACRES,2303,8050,1952,,592,,Sold,,,https://www.redfin.com/MD/Bethesda/5910-Woodacres-Dr-20816/home/10658332,BRIGHT MLS,MDMC2090396,N,Y,38.9694431,-77.1215725
PAST SALE,May-31-2023,Single Family Residential,5610 Newington Rd,Bethesda,MD,20816,2525000,6,4.5,SPRINGFIELD,5043,8688,1957,,501,,Sold,,,https://www.redfin.com/MD/Bethesda/5610-Newington-Rd-20816/home/10665689,BRIGHT MLS,MDMC2090914,N,Y,38.9648491,-77.1131218
PAST SALE,August-7-2023,Single Family Residential,5212 Belvoir Dr,Bethesda,MD,20816,910000,2,1.5,GLEN MAR PARK,1804,7454,1951,,504,,Sold,,,https://www.redfin.com/MD/Bethesda/5212-Belvoir-Dr-20816/home/10657052,BRIGHT MLS,MDMC2100308,N,Y,38.9592974,-77.1166393
PAST SALE,October-10-2023,Single Family Residential,5018 Sangamore Rd,Bethesda,MD,20816,1250000,4,3.5,FORT SUMNER,3050,10326,1960,,410,,Sold,,,https://www.redfin.com/MD/Bethesda/5018-Sangamore-Rd-20816/home/10675382,BRIGHT MLS,MDMC2106582,N,Y,38.9556231,-77.122067
PAST SALE,July-18-2023,Single Family Residential,7912 Deepwell Dr,Bethesda,MD,20817,1945000,4,3.5,POTOMAC OUTSIDE,3696,29290,1960,,526,,Sold,,,https://www.redfin.com/MD/Bethesda/7912-Deepwell-Dr-20817/home/10883838,BRIGHT MLS,MDMC2095776,N,Y,39.0079122,-77.1656143
PAST SALE,June-26-2023,Single Family Residential,8424 Carlynn Dr,Bethesda,MD,20817,1257500,5,3.5,CONG COUNTRY CLUB EST,3240,15627,1977,,388,13,Sold,,,https://www.redfin.com/MD/Bethesda/8424-Carlynn-Dr-20817/home/10686461,BRIGHT MLS,MDMC2088638,N,Y,38.9782009,-77.1738366
PAST SALE,August-30-2023,Single Family Residential,5812 Beech Ave,Bethesda,MD,20817,2220000,6,5.5,ALTA VISTA TERRACE,,7425,2023,,,,Sold,,,https://www.redfin.com/MD/Bethesda/5812-Beech-Ave-20817/home/10677721,BRIGHT MLS,MDMC2091436,N,Y,39.0073063,-77.1177884
PAST SALE,July-7-2023,Single Family Residential,9514 Milstead Dr,Bethesda,MD,20817,1160000,4,3,WYNGATE,2533,7561,1950,,458,,Sold,,,https://www.redfin.com/MD/Bethesda/9514-Milstead-Dr-20817/home/10660706,BRIGHT MLS,MDMC2093892,N,Y,39.011662,-77.1216624
PAST SALE,July-19-2023,Single Family Residential,5833 Marbury Rd,Bethesda,MD,20817,1350000,5,3.5,KENWOOD PARK,4036,10500,1957,,334,,Sold,,,https://www.redfin.com/MD/Bethesda/5833-Marbury-Rd-20817/home/10668691,BRIGHT MLS,MDMC2097206,N,Y,38.9774657,-77.1173023
PAST SALE,October-18-2023,Single Family Residential,5821 Osceola Rd,Bethesda,MD,20816,1257500,4,3,HIGH POINT,2852,12000,1956,,441,,Sold,,,https://www.redfin.com/MD/Bethesda/5821-Osceola-Rd-20816/home/10679881,BRIGHT MLS,MDMC2105988,N,Y,38.9633769,-77.1175271
PAST SALE,May-10-2023,Single Family Residential,8105 Thoreau Dr,Bethesda,MD,20817,1714000,4,4.5,MARY KNOLLS,3219,13802,1960,,532,,Sold,,,https://www.redfin.com/MD/Bethesda/8105-Thoreau-Dr-20817/home/10676991,BRIGHT MLS,MDMC2089898,N,Y,38.9899584,-77.1354609
PAST SALE,May-1-2023,Single Family Residential,5914 Namakagan Rd,Bethesda,MD,20816,1110000,4,3.5,GLEN MAR PARK,2300,5204,1967,,483,,Sold,,,https://www.redfin.com/MD/Bethesda/5914-Namakagan-Rd-20816/home/10656888,BRIGHT MLS,MDMC2087140,N,Y,38.9600545,-77.1215276
PAST SALE,June-30-2023,Single Family Residential,4700 Jones Bridge Rd,Bethesda,MD,20814,1350000,5,3.5,GLENBROOK VILLAGE,4027,7131,2006,,335,,Sold,,,https://www.redfin.com/MD/Bethesda/4700-Jones-Bridge-Rd-20814/home/10647616,BRIGHT MLS,MDMC2093362,N,Y,38.996705,-77.0940157
PAST SALE,May-18-2023,Single Family Residential,6305 Blackwood Rd,Bethesda,MD,20817,1025000,4,2,WOODBURN,1867,9859,1956,,549,,Sold,,,https://www.redfin.com/MD/Bethesda/6305-Blackwood-Rd-20817/home/10675195,BRIGHT MLS,MDMC2088798,N,Y,38.9725012,-77.1241795
PAST SALE,October-18-2023,Single Family Residential,5911 Harwick Rd,Bethesda,MD,20816,1390000,4,3.5,WOODACRES,2443,8669,1941,,569,,Sold,,,https://www.redfin.com/MD/Bethesda/5911-Harwick-Rd-20816/home/10658665,BRIGHT MLS,MDMC2107676,N,Y,38.9693383,-77.1235053
PAST SALE,June-28-2023,Single Family Residential,5409 Kirkwood Dr,Bethesda,MD,20816,1358500,4,2.5,WESTWOOD,2700,8732,1955,,503,,Sold,,,https://www.redfin.com/MD/Bethesda/5409-Kirkwood-Dr-20816/home/10675045,BRIGHT MLS,MDMC2093252,N,Y,38.9635876,-77.1109866
PAST SALE,August-15-2023,Single Family Residential,4706 Hunt Ave,Chevy Chase,MD,20815,1725000,4,4.5,CHEVY CHASE GARDENS,2669,4982,1929,,646,,Sold,,,https://www.redfin.com/MD/Chevy-Chase/4706-Hunt-Ave-20815/home/10643745,BRIGHT MLS,MDMC2094924,N,Y,38.9707544,-77.0938808
PAST SALE,May-31-2023,Single Family Residential,4709 Fort Sumner Dr,Bethesda,MD,20816,1750000,6,4.5,SUMNER,3600,6187,1983,,486,,Sold,,,https://www.redfin.com/MD/Bethesda/4709-Fort-Sumner-Dr-20816/home/10666619,BRIGHT MLS,MDMC2090856,N,Y,38.9516956,-77.1149199
PAST SALE,May-8-2023,Single Family Residential,6437 Dahlonega Rd,Bethesda,MD,20816,1335000,3,3,GLEN ECHO HEIGHTS,2484,12203,1937,,537,,Sold,,,https://www.redfin.com/MD/Bethesda/6437-Dahlonega-Rd-20816/home/10648313,BRIGHT MLS,MDMC2086118,N,Y,38.9634854,-77.1310564
PAST SALE,August-22-2023,Single Family Residential,7548 Sebago Rd,Bethesda,MD,20817,1050000,4,3,COHASSET,2520,11166,1960,,417,,Sold,,,https://www.redfin.com/MD/Bethesda/7548-Sebago-Rd-20817/home/10673952,BRIGHT MLS,MDMC2101338,N,Y,38.9869175,-77.1398204
PAST SALE,October-18-2023,Single Family Residential,7362 Heatherhill Ct,Bethesda,MD,20817,1950000,5,5,AL MARAH,7472,19914,1989,,261,,Sold,,,https://www.redfin.com/MD/Bethesda/7362-Heatherhill-Ct-20817/home/10696542,BRIGHT MLS,MDMC2108798,N,Y,38.9832828,-77.155212
PAST SALE,May-11-2023,Single Family Residential,6014 Corewood Ln,Bethesda,MD,20816,2000000,5,4.5,SUMNER,3476,12925,1966,,575,,Sold,,,https://www.redfin.com/MD/Bethesda/6014-Corewood-Ln-20816/home/10666393,BRIGHT MLS,MDMC2086714,N,Y,38.9536124,-77.1205836
PAST SALE,September-8-2023,Single Family Residential,8713 Seven Locks Rd,Bethesda,MD,20817,1399000,5,4.5,POTOMAC OUTSIDE,5884,26818,2002,,238,,Sold,,,https://www.redfin.com/MD/Bethesda/8713-Seven-Locks-Rd-20817/home/10925431,BRIGHT MLS,MDMC2096166,N,Y,38.9979874,-77.1589192
PAST SALE,May-18-2023,Single Family Residential,5927 Beech Ave,Bethesda,MD,20817,1205000,3,3,ALTA VISTA TERRACE,2400,7150,1948,,502,,Sold,,,https://www.redfin.com/MD/Bethesda/5927-Beech-Ave-20817/home/10678137,BRIGHT MLS,MDMC2079128,N,Y,39.0069833,-77.1210331
PAST SALE,July-18-2023,Single Family Residential,5712 Beech Ave,Bethesda,MD,20817,905000,4,2.5,HENDRY ESTATES,2028,5555,1948,,446,,Sold,,,https://www.redfin.com/MD/Bethesda/5712-Beech-Ave-20817/home/10679466,BRIGHT MLS,MDMC2097594,N,Y,39.0090063,-77.1162797
PAST SALE,May-8-2023,Single Family Residential,6311 Haviland Dr,Bethesda,MD,20817,1245000,4,3,WOODBURN,2475,7260,1960,,503,,Sold,,,https://www.redfin.com/MD/Bethesda/6311-Haviland-Dr-20817/home/10675197,BRIGHT MLS,MDMC2088480,N,Y,38.9732955,-77.1239323
PAST SALE,April-28-2023,Single Family Residential,7520 Westfield Dr,Bethesda,MD,20817,2620000,5,4.5,LANDON WOODS,5600,9184,2015,,468,,Sold,,,https://www.redfin.com/MD/Bethesda/7520-Westfield-Dr-20817/home/10667280,BRIGHT MLS,MDMC2079432,N,Y,38.9853533,-77.1249212
PAST SALE,April-28-2023,Single Family Residential,9115 Kirkdale Rd,Bethesda,MD,20817,1101000,4,3,GREEN TREE MANOR,1927,7700,1959,,571,,Sold,,,https://www.redfin.com/MD/Bethesda/9115-Kirkdale-Rd-20817/home/10674642,BRIGHT MLS,MDMC2086472,N,Y,39.0068312,-77.1304271
PAST SALE,June-2-2023,Single Family Residential,7503 Whittier Blvd,Bethesda,MD,20817,1350000,4,3,OAKWOOD KNOLLS,3430,8844,1956,,394,,Sold,,,https://www.redfin.com/MD/Bethesda/7503-Whittier-Blvd-20817/home/10669484,BRIGHT MLS,MDMC2093516,N,Y,38.9842487,-77.1259774
PAST SALE,May-5-2023,Single Family Residential,5624 Alta Vista Rd,Bethesda,MD,20817,1235000,6,3.5,ALTA VISTA,2900,6144,1961,,426,,Sold,,,https://www.redfin.com/MD/Bethesda/5624-Alta-Vista-Rd-20817/home/10655704,BRIGHT MLS,MDMC2085742,N,Y,39.0059384,-77.114778
PAST SALE,June-15-2023,Single Family Residential,7209 Marbury Rd,Bethesda,MD,20817,1431000,5,3,KENWOOD PARK,3116,14098,1959,,459,,Sold,,,https://www.redfin.com/MD/Bethesda/7209-Marbury-Rd-20817/home/10668995,BRIGHT MLS,MDMC2089784,N,Y,38.9827886,-77.1197296
PAST SALE,May-19-2023,Single Family Residential,4528 Windsor Ln,Bethesda,MD,20814,856000,2,1,GLENBROOK VILLAGE,730,5527,1938,,1173,,Sold,,,https://www.redfin.com/MD/Bethesda/4528-Windsor-Ln-20814/home/10647341,BRIGHT MLS,MDMC2088610,N,Y,38.9952601,-77.0907786
PAST SALE,May-5-2023,Single Family Residential,5518 Hoover St,Bethesda,MD,20817,990000,3,2.5,HUNTINGTON TERRACE,2062,7180,1948,,480,,Sold,,,https://www.redfin.com/MD/Bethesda/5518-Hoover-St-20817/home/10649967,BRIGHT MLS,MDMC2085922,N,Y,38.9966994,-77.1139197
PAST SALE,July-14-2023,Single Family Residential,5518 Uppingham St,Chevy Chase,MD,20815,1625000,4,2.5,SOMERSET HEIGHTS,2550,8125,1955,,637,,Sold,,,https://www.redfin.com/MD/Chevy-Chase/5518-Uppingham-St-20815/home/10653798,BRIGHT MLS,MDMC2095436,N,Y,38.9643952,-77.095814
PAST SALE,October-16-2023,Single Family Residential,6313 Carnegie Dr,Bethesda,MD,20817,902500,3,2.5,ASHBURTON,1943,8555,1958,,464,,Sold,,,https://www.redfin.com/MD/Bethesda/6313-Carnegie-Dr-20817/home/10670693,BRIGHT MLS,MDMC2107072,N,Y,39.017259,-77.1276405
PAST SALE,July-21-2023,Townhouse,5419 Whitley Park Ter #43,Bethesda,MD,20814,743000,3,3.5,WHITLEY PARK CODM,2160,,1994,,344,438,Sold,,,https://www.redfin.com/MD/Bethesda/5419-Whitley-Park-Ter-20814/unit-43/home/10701168,BRIGHT MLS,MDMC2094900,N,Y,39.0148066,-77.1113574
PAST SALE,August-8-2023,Single Family Residential,7301 Marbury Rd,Bethesda,MD,20817,1525000,5,3,KENWOOD PARK,3781,17806,1960,,403,,Sold,,,https://www.redfin.com/MD/Bethesda/7301-Marbury-Rd-20817/home/10668593,BRIGHT MLS,MDMC2099628,N,Y,38.9832347,-77.1201341
PAST SALE,June-30-2023,Single Family Residential,7508 Glenriddle Rd,Bethesda,MD,20817,1100000,3,2.5,BANNOCKBURN,2097,9591,1955,,525,,Sold,,,https://www.redfin.com/MD/Bethesda/7508-Glenriddle-Rd-20817/home/10666977,BRIGHT MLS,MDMC2096500,N,Y,38.9845024,-77.1422472
PAST SALE,July-7-2023,Single Family Residential,7614 Winterberry Pl,Bethesda,MD,20817,1285000,4,3.5,COHASSET,3202,14578,1962,,401,,Sold,,,https://www.redfin.com/MD/Bethesda/7614-Winterberry-Pl-20817/home/10674089,BRIGHT MLS,MDMC2094598,N,Y,38.986537,-77.1421573
PAST SALE,May-3-2023,Single Family Residential,5607 Greentree Rd,Bethesda,MD,20817,776100,4,2,SONOMA,1912,5706,1937,,406,,Sold,,,https://www.redfin.com/MD/Bethesda/5607-Greentree-Rd-20817/home/10653097,BRIGHT MLS,MDMC2085330,N,Y,39.0006279,-77.112942
PAST SALE,May-12-2023,Single Family Residential,5504 Mohican Rd,Bethesda,MD,20816,2495000,5,4.5,GLEN ECHO HEIGHTS,5330,14112,2012,,468,,Sold,,,https://www.redfin.com/MD/Bethesda/5504-Mohican-Rd-20816/home/10649127,BRIGHT MLS,MDMC2083092,N,Y,38.9638938,-77.1302249
PAST SALE,May-9-2023,Single Family Residential,5615 Mckinley St,Bethesda,MD,20817,1435000,5,4,HUNTINGTON TERRACE,2324,9629,1938,,617,,Sold,,,https://www.redfin.com/MD/Bethesda/5615-McKinley-St-20817/home/10649836,BRIGHT MLS,MDMC2083404,N,Y,38.9961502,-77.1155492
PAST SALE,September-1-2023,Single Family Residential,5005 Rodman Rd,Bethesda,MD,20816,1425000,4,3,WESTGATE,3131,8677,1956,,455,,Sold,,,https://www.redfin.com/MD/Bethesda/5005-Rodman-Rd-20816/home/10654424,BRIGHT MLS,MDMC2101480,N,Y,38.9549627,-77.0982418
PAST SALE,June-9-2023,Single Family Residential,6514 Lone Oak Dr,Bethesda,MD,20817,1068000,4,3,FERNWOOD,2487,12908,1956,,429,,Sold,,,https://www.redfin.com/MD/Bethesda/6514-Lone-Oak-Dr-20817/home/10672089,BRIGHT MLS,MDMC2090622,N,Y,39.0201442,-77.1329443
PAST SALE,September-22-2023,Single Family Residential,8509 Hempstead Ave,Bethesda,MD,20817,1540000,5,3.5,BRADMOOR,3498,6160,1941,,440,,Sold,,,https://www.redfin.com/MD/Bethesda/8509-Hempstead-Ave-20817/home/10662353,BRIGHT MLS,MDMC2103072,N,Y,38.9953291,-77.1168078
PAST SALE,June-14-2023,Single Family Residential,5903 Wilmett Rd,Bethesda,MD,20817,1112000,3,2,HENDRY ESTATES,2359,6900,1948,,471,,Sold,,,https://www.redfin.com/MD/Bethesda/5903-Wilmett-Rd-20817/home/10679587,BRIGHT MLS,MDMC2087562,N,Y,39.0089812,-77.1191902
PAST SALE,May-15-2023,Single Family Residential,5101 Wissioming Rd,Bethesda,MD,20816,759500,2,1,GLEN ECHO HEIGHTS,1075,5260,1939,,707,,Sold,,,https://www.redfin.com/MD/Bethesda/5101-Wissioming-Rd-20816/home/10648951,BRIGHT MLS,MDMC2087094,N,Y,38.9561855,-77.126382
PAST SALE,May-30-2023,Single Family Residential,8105 Rayburn Rd,Bethesda,MD,20817,1717500,4,3.5,BRADLEY WOODS,2409,14944,1940,,713,,Sold,,,https://www.redfin.com/MD/Bethesda/8105-Rayburn-Rd-20817/home/10673578,BRIGHT MLS,MDMC2088268,N,Y,38.9910341,-77.1205162
PAST SALE,August-22-2023,Townhouse,9715 Whitley Park Pl,Bethesda,MD,20814,950000,3,3.5,WHITLEY PARK CODM,3032,,1990,,313,438,Sold,,,https://www.redfin.com/MD/Bethesda/9715-Whitley-Park-Pl-20814/home/186246315,BRIGHT MLS,MDMC2100996,N,Y,39.014899,-77.108914
PAST SALE,July-26-2023,Single Family Residential,5114 Viking Rd,Bethesda,MD,20814,1125000,4,3,MAPLEWOOD ESTATES,2330,7909,1956,,483,,Sold,,,https://www.redfin.com/MD/Bethesda/5114-Viking-Rd-20814/home/10672322,BRIGHT MLS,MDMC2097122,N,Y,39.0120438,-77.1027567
PAST SALE,June-29-2023,Single Family Residential,5320 Tuscarawas Rd,Bethesda,MD,20816,1440000,4,4,GLEN ECHO HEIGHTS,3683,12261,1938,,391,,Sold,,,https://www.redfin.com/MD/Bethesda/5320-Tuscarawas-Rd-20816/home/10648038,BRIGHT MLS,MDMC2093496,N,Y,38.9621511,-77.1262921
PAST SALE,September-13-2023,Single Family Residential,26 Froude Cir,Cabin John,MD,20818,658351,2,1,CABIN JOHN GARDENS COOP,971,5992,1942,,678,662,Sold,,,https://www.redfin.com/MD/Cabin-John/26-Froude-Cir-20818/home/12451178,BRIGHT MLS,MDMC2102734,N,Y,38.9720723,-77.150415
PAST SALE,May-1-2023,Single Family Residential,5317 Blackistone Rd,Bethesda,MD,20816,2008000,5,3.5,WESTMORELAND HILLS,3405,11693,1937,,590,,Sold,,,https://www.redfin.com/MD/Bethesda/5317-Blackistone-Rd-20816/home/10655689,BRIGHT MLS,MDMC2086634,N,Y,38.9498508,-77.1079298
PAST SALE,May-16-2023,Single Family Residential,8725 Ewing Dr,Bethesda,MD,20817,1170000,4,3,BRADMOOR,3124,7496,1960,,375,,Sold,,,https://www.redfin.com/MD/Bethesda/8725-Ewing-Dr-20817/home/10662648,BRIGHT MLS,MDMC2090082,N,Y,39.0007421,-77.122921
PAST SALE,August-7-2023,Single Family Residential,9307 E Parkhill Dr,Bethesda,MD,20814,645000,4,3,PARKVIEW,1788,8750,1955,,361,,Sold,,,https://www.redfin.com/MD/Bethesda/9307-E-Parkhill-Dr-20814/home/10669931,BRIGHT MLS,MDMC2100330,N,Y,39.0084581,-77.0887553
PAST SALE,September-6-2023,Single Family Residential,6523 Bannockburn Dr,Bethesda,MD,20817,1059000,3,3,WILSON KNOLLS,1570,10900,1957,,675,,Sold,,,https://www.redfin.com/MD/Bethesda/6523-Bannockburn-Dr-20817/home/10673459,BRIGHT MLS,MDMC2104234,N,Y,38.9760786,-77.1348314
PAST SALE,September-1-2023,Single Family Residential,10 Kentbury Way,Bethesda,MD,20814,980000,3,2,COLUMBIA FOREST,1716,6398,1947,,571,,Sold,,,https://www.redfin.com/MD/Bethesda/10-Kentbury-Way-20814/home/10662913,BRIGHT MLS,MDMC2101834,N,Y,38.9891945,-77.085653
PAST SALE,June-12-2023,Single Family Residential,4613 North Chelsea Ln N,Bethesda,MD,20814,940000,3,3,GLENBROOK VILLAGE,2114,5280,1938,,445,,Sold,,,https://www.redfin.com/MD/Bethesda/4613-N-Chelsea-Ln-20814/home/10647219,BRIGHT MLS,MDMC2091786,N,Y,38.9949361,-77.0932514
PAST SALE,July-25-2023,Single Family Residential,21 Vassar Cir,Glen Echo,MD,20812,1175000,5,3,GLEN ECHO,3187,8572,1918,,369,,Sold,,,https://www.redfin.com/MD/Glen-Echo/21-Vassar-Cir-20812/home/10649277,BRIGHT MLS,MDMC2095160,N,Y,38.9703591,-77.1437752
PAST SALE,June-23-2023,Single Family Residential,8317 Comanche Ct,Bethesda,MD,20817,2117000,6,4.5,CARDEROCK SPRINGS,5950,16000,1982,,356,,Sold,,,https://www.redfin.com/MD/Bethesda/8317-Comanche-Ct-20817/home/10907773,BRIGHT MLS,MDMC2091978,N,Y,38.985306,-77.1697705
PAST SALE,May-19-2023,Single Family Residential,7505 Whittier Blvd,Bethesda,MD,20817,1250000,5,3,OAKWOOD KNOLLS,3274,8610,1956,,382,,Sold,,,https://www.redfin.com/MD/Bethesda/7505-Whittier-Blvd-20817/home/10669309,BRIGHT MLS,MDMC2085122,N,Y,38.9844316,-77.1259999
PAST SALE,August-1-2023,Single Family Residential,2 Buttonwood Ln,Bethesda,MD,20816,1530000,5,3,TULIP HILL,2274,24713,1953,,673,,Sold,,,https://www.redfin.com/MD/Bethesda/2-Buttonwood-Ln-20816/home/10674778,BRIGHT MLS,MDMC2095676,N,Y,38.9690644,-77.1311013
PAST SALE,August-16-2023,Townhouse,5309 Pooks Hill Rd,Bethesda,MD,20814,615000,3,3,BETHESDA OVERLOOK,1700,,1958,,362,368,Sold,,,https://www.redfin.com/MD/Bethesda/5309-Pooks-Hill-Rd-20814/home/186206260,BRIGHT MLS,MDMC2101006,N,Y,39.0153771,-77.1073437
PAST SALE,June-28-2023,Single Family Residential,4607 Norwood Dr,Chevy Chase,MD,20815,1749000,4,3.5,CHEVY CHASE TERRACE,3604,6828,1927,,485,,Sold,,,https://www.redfin.com/MD/Chevy-Chase/4607-Norwood-Dr-20815/home/10644138,BRIGHT MLS,MDMC2091186,N,Y,38.9756965,-77.0909359
PAST SALE,August-30-2023,Townhouse,8340 N Brook Ln,Bethesda,MD,20814,816000,4,2.5,GLENBROOK KNOLLS,2042,1135,1967,,400,220,Sold,,,https://www.redfin.com/MD/Bethesda/8340-N-Brook-Ln-20814/home/10688749,BRIGHT MLS,MDMC2099746,N,Y,38.9932487,-77.1035916
PAST SALE,June-2-2023,Single Family Residential,4831 Chevy Chase Blvd,Chevy Chase,MD,20815,1165000,5,3.5,CHEVY CHASE TERRACE,2320,5924,1954,,502,,Sold,,,https://www.redfin.com/MD/Chevy-Chase/4831-Chevy-Chase-Blvd-20815/home/10644442,BRIGHT MLS,MDMC2090854,N,Y,38.9739687,-77.0971628
PAST SALE,May-5-2023,Townhouse,5133 King Charles Way,Bethesda,MD,20814,655000,3,3,GROSVENOR MEWS,1782,1481,1984,,368,161,Sold,,,https://www.redfin.com/MD/Bethesda/5133-King-Charles-Way-20814/home/10696730,BRIGHT MLS,MDMC2087982,N,Y,39.0211893,-77.1040412
PAST SALE,May-3-2023,Single Family Residential,5108 Wehawken Rd,Bethesda,MD,20816,1725000,5,4,GLEN ECHO HEIGHTS,3470,12000,1977,,497,,Sold,,,https://www.redfin.com/MD/Bethesda/5108-Wehawken-Rd-20816/home/10648906,BRIGHT MLS,MDMC2084620,N,Y,38.9570651,-77.125101
PAST SALE,May-2-2023,Single Family Residential,6605 Kennedy Dr,Chevy Chase,MD,20815,3200000,6,4.5,KENWOOD,3673,14620,1937,,871,,Sold,,,https://www.redfin.com/MD/Chevy-Chase/6605-Kennedy-Dr-20815/home/10650298,BRIGHT MLS,MDMC2086780,N,Y,38.9759223,-77.1052999
PAST SALE,August-4-2023,Single Family Residential,7129 Fairfax Rd,Bethesda,MD,20814,1810000,3,2.5,BRADLEY VILLAGE,1789,7343,1948,,1012,,Sold,,,https://www.redfin.com/MD/Bethesda/7129-Fairfax-Rd-20814/home/10639778,BRIGHT MLS,MDMC2096504,N,Y,38.9816499,-77.1048953
PAST SALE,May-26-2023,Single Family Residential,9504 Starmont Rd,Bethesda,MD,20817,1575000,4,3.5,BETHESDA OUT RES. (1),4318,9065,1978,,365,,Sold,,,https://www.redfin.com/MD/Bethesda/9504-Starmont-Rd-20817/home/10686625,BRIGHT MLS,MDMC2088706,N,Y,39.010864,-77.1317305
PAST SALE,May-23-2023,Single Family Residential,8621 Hempstead Ave,Bethesda,MD,20817,1183000,5,3,BRADMOOR,2358,6848,1957,,502,,Sold,,,https://www.redfin.com/MD/Bethesda/8621-Hempstead-Ave-20817/home/10662131,BRIGHT MLS,MDMC2088640,N,Y,38.9976961,-77.1162909
PAST SALE,May-30-2023,Single Family Residential,6306 Bannockburn Dr,Bethesda,MD,20817,2290000,5,5.5,BANNOCKBURN COOP,5384,8321,2019,,425,,Sold,,,https://www.redfin.com/MD/Bethesda/6306-Bannockburn-Dr-20817/home/10678609,BRIGHT MLS,MDMC2091442,N,Y,38.9737773,-77.1409889
PAST SALE,June-16-2023,Single Family Residential,4802 Jamestown Rd,Bethesda,MD,20816,1770000,4,4.5,YORKTOWN VILLAGE,3835,7226,1940,,462,,Sold,,,https://www.redfin.com/MD/Bethesda/4802-Jamestown-Rd-20816/home/10675258,BRIGHT MLS,MDMC2092010,N,Y,38.9520365,-77.1014787
PAST SALE,May-29-2023,Single Family Residential,4615 Rosedale Ave,Bethesda,MD,20814,879000,2,1.5,ROSEDALE PARK,1368,4800,1934,,643,,Sold,,,https://www.redfin.com/MD/Bethesda/4615-Rosedale-Ave-20814/home/10652167,BRIGHT MLS,MDMC2090238,N,Y,38.9929756,-77.0926557
PAST SALE,June-15-2023,Single Family Residential,9107 Kittery Ln,Bethesda,MD,20817,1550000,4,3.5,ARROWOOD,4175,23260,1963,,371,,Sold,,,https://www.redfin.com/MD/Bethesda/9107-Kittery-Ln-20817/home/10637475,BRIGHT MLS,MDMC2089492,N,Y,39.0061237,-77.1517294
PAST SALE,July-31-2023,Single Family Residential,6503 Brookes Hill Ct,Bethesda,MD,20816,1750000,3,3.5,BETHESDA OUT RES.(2),2595,8510,1955,,674,,Sold,,,https://www.redfin.com/MD/Bethesda/6503-Brookes-Hill-Ct-20816/home/10638229,BRIGHT MLS,MDMC2098844,N,Y,38.946538,-77.1204488
PAST SALE,May-31-2023,Single Family Residential,5508 Oakmont Ave,Bethesda,MD,20817,1130000,4,2.5,OAKMONT,2145,6000,1961,,527,,Sold,,,https://www.redfin.com/MD/Bethesda/5508-Oakmont-Ave-20817/home/10651850,BRIGHT MLS,MDMC2089570,N,Y,39.0043074,-77.1118681
PAST SALE,September-1-2023,Single Family Residential,9305 Linden Ave,Bethesda,MD,20814,1485000,6,5.5,MAPLEWOOD,3774,9130,1949,,393,,Sold,,,https://www.redfin.com/MD/Bethesda/9305-Linden-Ave-20814/home/10657860,BRIGHT MLS,MDMC2099496,N,Y,39.0074996,-77.1057719
PAST SALE,September-28-2023,Townhouse,5352 Merriam St,Bethesda,MD,20814,1735000,4,3.5,GROSVENOR HEIGHTS,3752,2503,2018,,462,187,Sold,,,https://www.redfin.com/MD/Bethesda/5352-Merriam-St-20814/home/166426409,BRIGHT MLS,MDMC2102666,N,Y,39.0206403,-77.1073894
PAST SALE,April-28-2023,Single Family Residential,5915 Wilmett Rd,Bethesda,MD,20817,885000,4,2,HENDRY ESTATES,1800,6900,1948,,492,,Sold,,,https://www.redfin.com/MD/Bethesda/5915-Wilmett-Rd-20817/home/10679464,BRIGHT MLS,MDMC2085968,N,Y,39.0088014,-77.1204488
PAST SALE,August-11-2023,Single Family Residential,5623 Jordan Rd,Bethesda,MD,20816,1413000,4,3,SPRINGFIELD,2961,8445,1955,,477,,Sold,,,https://www.redfin.com/MD/Bethesda/5623-Jordan-Rd-20816/home/10665840,BRIGHT MLS,MDMC2098734,N,Y,38.9626039,-77.1145603
PAST SALE,June-29-2023,Single Family Residential,6700 Wilson Ln,Bethesda,MD,20817,1150000,3,2,BETHESDA OUT RES. (1),1678,18365,1950,,685,,Sold,,,https://www.redfin.com/MD/Bethesda/6700-Wilson-Ln-20817/home/10636879,BRIGHT MLS,MDMC2093532,N,Y,38.9855136,-77.1347868
PAST SALE,September-22-2023,Single Family Residential,4911 Chevy Chase Blvd,Chevy Chase,MD,20815,1410000,3,3.5,CHEVY CHASE TERRACE,2296,6110,1934,,614,,Sold,,,https://www.redfin.com/MD/Chevy-Chase/4911-Chevy-Chase-Blvd-20815/home/10644160,BRIGHT MLS,MDMC2103146,N,Y,38.9742785,-77.0956342
PAST SALE,July-18-2023,Single Family Residential,6811 Rannoch Rd,Bethesda,MD,20817,1885000,5,4.5,FAIRWAY HILLS,4911,10366,1996,,384,44,Sold,,,https://www.redfin.com/MD/Bethesda/6811-Rannoch-Rd-20817/home/10701024,BRIGHT MLS,MDMC2089774,N,Y,38.9736013,-77.1365396
PAST SALE,August-22-2023,Single Family Residential,7536 Sebago Rd,Bethesda,MD,20817,1177000,5,3,COHASSET,2360,10512,1960,,499,,Sold,,,https://www.redfin.com/MD/Bethesda/7536-Sebago-Rd-20817/home/10674087,BRIGHT MLS,MDMC2096754,N,Y,38.9864014,-77.1402249
PAST SALE,June-14-2023,Single Family Residential,9601 Alta Vista Ter,Bethesda,MD,20814,1175000,4,3,MAPLEWOOD ESTATES,2229,9997,1957,,527,,Sold,,,https://www.redfin.com/MD/Bethesda/9601-Alta-Vista-Ter-20814/home/10672365,BRIGHT MLS,MDMC2093666,N,Y,39.0127094,-77.1023778
PAST SALE,September-13-2023,Single Family Residential,5628 Alta Vista Rd,Bethesda,MD,20817,895500,5,3,ALTA VISTA,2552,7013,1963,,351,,Sold,,,https://www.redfin.com/MD/Bethesda/5628-Alta-Vista-Rd-20817/home/10656035,BRIGHT MLS,MDMC2104206,N,Y,39.0058867,-77.1152844
PAST SALE,July-3-2023,Single Family Residential,9527 Ewing Dr,Bethesda,MD,20817,855000,3,2,WYNGATE,2155,8066,1950,,397,,Sold,,,https://www.redfin.com/MD/Bethesda/9527-Ewing-Dr-20817/home/10660530,BRIGHT MLS,MDMC2094796,N,Y,39.0120679,-77.122067
PAST SALE,May-2-2023,Single Family Residential,4623 S Chelsea Ln,Bethesda,MD,20814,978000,3,2.5,GLENBROOK VILLAGE,1350,5362,1938,,724,,Sold,,,https://www.redfin.com/MD/Bethesda/4623-S-Chelsea-Ln-20814/home/10647355,BRIGHT MLS,MDMC2087488,N,Y,38.9943351,-77.093611
PAST SALE,July-28-2023,Single Family Residential,5010 Acacia Ave,Bethesda,MD,20814,1185000,4,3,THE FOREST,3350,9438,1962,,354,,Sold,,,https://www.redfin.com/MD/Bethesda/5010-Acacia-Ave-20814/home/10636513,BRIGHT MLS,MDMC2092774,N,Y,39.0076258,-77.0998954
PAST SALE,May-5-2023,Single Family Residential,4623 Morgan Dr,Chevy Chase,MD,20815,1653000,4,3.5,CHEVY CHASE GARDENS,2012,8918,1941,,822,,Sold,,,https://www.redfin.com/MD/Chevy-Chase/4623-Morgan-Dr-20815/home/10643676,BRIGHT MLS,MDMC2085966,N,Y,38.9729585,-77.0920824
PAST SALE,June-30-2023,Single Family Residential,5821 Highland Dr,Chevy Chase,MD,20815,2150000,5,3.5,KENWOOD,2775,12935,1938,,775,,Sold,,,https://www.redfin.com/MD/Chevy-Chase/5821-Highland-Dr-20815/home/10650338,BRIGHT MLS,MDMC2092580,N,Y,38.9685053,-77.1063788
PAST SALE,August-2-2023,Single Family Residential,4809 Scarsdale Rd,Bethesda,MD,20816,1825000,5,3.5,SUMNER,2751,10450,1959,,663,,Sold,,,https://www.redfin.com/MD/Bethesda/4809-Scarsdale-Rd-20816/home/10666758,BRIGHT MLS,MDMC2094206,N,Y,38.9535407,-77.1152795
PAST SALE,September-18-2023,Single Family Residential,5712 Tanglewood Dr,Bethesda,MD,20817,1300000,5,3,KENWOOD PARK,3291,9000,1960,,395,,Sold,,,https://www.redfin.com/MD/Bethesda/5712-Tanglewood-Dr-20817/home/10668444,BRIGHT MLS,MDMC2103058,N,Y,38.9795899,-77.1155043
PAST SALE,July-31-2023,Single Family Residential,5610 Ogden Rd,Bethesda,MD,20816,1525000,4,3,SPRINGFIELD,2700,8509,1958,,565,,Sold,,,https://www.redfin.com/MD/Bethesda/5610-Ogden-Rd-20816/home/10665390,BRIGHT MLS,MDMC2095674,N,Y,38.9658666,-77.1132567
PAST SALE,September-28-2023,Single Family Residential,5320 Falmouth Rd,Bethesda,MD,20816,2225000,6,5,SUMNER PARK,5200,13907,1965,,428,,Sold,,,https://www.redfin.com/MD/Bethesda/5320-Falmouth-Rd-20816/home/10680493,BRIGHT MLS,MDMC2106260,N,Y,38.9528166,-77.1088064
PAST SALE,August-31-2023,Townhouse,7212 Taveshire Way,Bethesda,MD,20817,872000,3,2.5,WILDWOOD HILLS,1748,1927,1984,,499,132,Sold,,,https://www.redfin.com/MD/Bethesda/7212-Taveshire-Way-20817/home/10913738,BRIGHT MLS,MDMC2100796,N,Y,39.0214876,-77.1492691
PAST SALE,August-23-2023,Townhouse,10406 Parthenon Ct #10406,Bethesda,MD,20817,445000,3,2.5,LAKESHORE TOWNHOMES CODM,1309,,1983,,340,297,Sold,,,https://www.redfin.com/MD/Bethesda/10406-Parthenon-Ct-20817/unit-10406/home/10914705,BRIGHT MLS,MDMC2101346,N,Y,39.0260872,-77.153178
PAST SALE,June-29-2023,Single Family Residential,9509 Eagle Ridge Dr,Bethesda,MD,20817,1865000,5,4.5,AVENEL,5327,21342,1995,,350,481,Sold,,,https://www.redfin.com/MD/Bethesda/9509-Eagle-Ridge-Dr-20817/home/10919491,BRIGHT MLS,MDMC2094556,N,Y,38.9829306,-77.1947269
PAST SALE,May-17-2023,Single Family Residential,4700 Fort Sumner Dr,Bethesda,MD,20816,2290000,6,5.5,SUMNER,4127,13471,1959,,555,,Sold,,,https://www.redfin.com/MD/Bethesda/4700-Fort-Sumner-Dr-20816/home/10666485,BRIGHT MLS,MDMC2085980,N,Y,38.952508,-77.1153694
PAST SALE,June-6-2023,Single Family Residential,8620 Ridge Rd,Bethesda,MD,20817,2095000,5,4.5,HILLMEAD,5301,6968,2022,,395,,Sold,,,https://www.redfin.com/MD/Bethesda/8620-Ridge-Rd-20817/home/10664043,BRIGHT MLS,MDMC2089010,N,Y,38.9978619,-77.1244043
PAST SALE,August-24-2023,Single Family Residential,9704 Brixton Ln,Bethesda,MD,20817,1970900,6,4.5,FERNWOOD,5132,10039,2023,,384,,Sold,,,https://www.redfin.com/MD/Bethesda/9704-Brixton-Ln-20817/home/10672056,BRIGHT MLS,MDMC2100782,N,Y,39.0147962,-77.1324946
PAST SALE,July-10-2023,Single Family Residential,4905 Cumberland Ave,Chevy Chase,MD,20815,1535000,5,2.5,SOMERSET HEIGHTS,2600,10375,1927,,590,,Sold,,,https://www.redfin.com/MD/Chevy-Chase/4905-Cumberland-Ave-20815/home/10653556,BRIGHT MLS,MDMC2096858,N,Y,38.9697844,-77.0981069
PAST SALE,May-24-2023,Single Family Residential,6702 Fairfax Rd,Chevy Chase,MD,20815,2495000,6,5.5,BRADLEY HILLS,5200,5104,2006,,480,,Sold,,,https://www.redfin.com/MD/Chevy-Chase/6702-Fairfax-Rd-20815/home/10638876,BRIGHT MLS,MDMC2088124,N,Y,38.9761618,-77.1031421
PAST SALE,August-29-2023,Single Family Residential,6709 Tulip Hill Ter,Bethesda,MD,20816,1700000,6,3.5,TULIP HILL,4296,15041,1957,,396,,Sold,,,https://www.redfin.com/MD/Bethesda/6709-Tulip-Hill-Ter-20816/home/10674695,BRIGHT MLS,MDMC2101846,N,Y,38.9678971,-77.1346519
PAST SALE,August-1-2023,Single Family Residential,5107 Wissioming Rd,Bethesda,MD,20816,1600000,5,4,GLEN ECHO HEIGHTS,4152,5010,1999,,385,,Sold,,,https://www.redfin.com/MD/Bethesda/5107-Wissioming-Rd-20816/home/10648102,BRIGHT MLS,MDMC2098206,N,Y,38.9566167,-77.1266516
PAST SALE,May-17-2023,Single Family Residential,9205 Ewing Dr,Bethesda,MD,20817,2149000,5,4.5,ALTA VISTA TERRACE,4805,7178,2023,,447,,Sold,,,https://www.redfin.com/MD/Bethesda/9205-Ewing-Dr-20817/home/10677716,BRIGHT MLS,MDMC2083698,N,Y,39.0067837,-77.1231907
PAST SALE,June-20-2023,Single Family Residential,5201 Elsmere Ave,Bethesda,MD,20814,879000,3,1.5,MAPLEWOOD,1663,7914,1941,,529,,Sold,,,https://www.redfin.com/MD/Bethesda/5201-Elsmere-Ave-20814/home/10657817,BRIGHT MLS,MDMC2093814,N,Y,39.0096862,-77.1037377
PAST SALE,May-19-2023,Single Family Residential,7605 Arrowood Rd,Bethesda,MD,20817,1399000,5,4.5,BURNING TREE ESTATES,4272,20098,1966,,327,,Sold,,,https://www.redfin.com/MD/Bethesda/7605-Arrowood-Rd-20817/home/10679393,BRIGHT MLS,MDMC2089324,N,Y,38.9988793,-77.1554142
PAST SALE,July-24-2023,Single Family Residential,8005 Summer Mill Ct,Bethesda,MD,20817,1900000,5,4.5,BURNING TREE VALLEY,5248,12801,1996,,362,,Sold,,,https://www.redfin.com/MD/Bethesda/8005-Summer-Mill-Ct-20817/home/10699666,BRIGHT MLS,MDMC2092116,N,Y,38.9896566,-77.1447864
PAST SALE,May-26-2023,Single Family Residential,9910 Edward Ave,Bethesda,MD,20814,1762500,6,5.5,NORTH BETHESDA GROVE,4579,5063,2023,,385,,Sold,,,https://www.redfin.com/MD/Bethesda/9910-Edward-Ave-20814/home/10664892,BRIGHT MLS,MDMC2090428,N,Y,39.0182917,-77.1129967
PAST SALE,June-12-2023,Single Family Residential,6101 Eastview St,Bethesda,MD,20817,1490000,4,3.5,KENWOOD PARK,5320,18473,1969,,280,,Sold,,,https://www.redfin.com/MD/Bethesda/6101-Eastview-St-20817/home/10668179,BRIGHT MLS,MDMC2092996,N,Y,38.9784773,-77.1229435
PAST SALE,September-1-2023,Single Family Residential,7109 Heathwood Ct,Bethesda,MD,20817,2325000,6,4.5,BRADLEY HILLS GROVE,6011,16979,1980,,387,,Sold,,,https://www.redfin.com/MD/Bethesda/7109-Heathwood-Ct-20817/home/10661759,BRIGHT MLS,MDMC2101510,N,Y,38.9991566,-77.1444269
PAST SALE,July-7-2023,Single Family Residential,8511 Rayburn Rd,Bethesda,MD,20817,1280000,5,5,BRADMOOR,3260,10846,1951,,393,,Sold,,,https://www.redfin.com/MD/Bethesda/8511-Rayburn-Rd-20817/home/10662851,BRIGHT MLS,MDMC2093072,N,Y,38.9955357,-77.1200892
PAST SALE,May-6-2023,Single Family Residential,8224 Burning Tree Rd,Bethesda,MD,20817,1150000,4,3,BRADLEY HILLS GROVE,2822,17115,1968,,408,,Sold,,,https://www.redfin.com/MD/Bethesda/8224-Burning-Tree-Rd-20817/home/10661581,BRIGHT MLS,MDMC2089534,N,Y,38.9954492,-77.1464042
PAST SALE,August-15-2023,Single Family Residential,5915 Lone Oak Dr,Bethesda,MD,20814,2375000,6,5,LONE OAK,4864,13600,2023,,488,,Sold,,,https://www.redfin.com/MD/Bethesda/5915-Lone-Oak-Dr-20814/home/183923691,BRIGHT MLS,MDMC2080618,N,Y,39.0199171,-77.1203294
PAST SALE,June-5-2023,Single Family Residential,5307 Mckinley St,Bethesda,MD,20814,1485000,5,3.5,GLENWOOD,3371,8200,1948,,441,,Sold,,,https://www.redfin.com/MD/Bethesda/5307-McKinley-St-20814/home/10657555,BRIGHT MLS,MDMC2091744,N,Y,38.996757,-77.1059293
PAST SALE,June-9-2023,Single Family Residential,7803 Fulbright Ct,Bethesda,MD,20817,1215000,4,2.5,MARY KNOLLS,2659,11163,1961,,457,,Sold,,,https://www.redfin.com/MD/Bethesda/7803-Fulbright-Ct-20817/home/10677024,BRIGHT MLS,MDMC2092054,N,Y,38.989718,-77.13618
PAST SALE,July-17-2023,Single Family Residential,7704 Hemlock St,Bethesda,MD,20817,2875000,6,6.5,OAKWOOD KNOLLS,6711,10888,2023,,428,,Sold,,,https://www.redfin.com/MD/Bethesda/7704-Hemlock-St-20817/home/10669326,BRIGHT MLS,MDMC2092270,N,Y,38.9865447,-77.1296631
PAST SALE,May-25-2023,Single Family Residential,9121 Burdette Rd,Bethesda,MD,20817,4700000,5,8.5,BRADLEY HILLS GROVE,8550,29824,2007,,550,,Sold,,,https://www.redfin.com/MD/Bethesda/9121-Burdette-Rd-20817/home/10661856,BRIGHT MLS,MDMC2086638,N,Y,39.0068206,-77.1384047
PAST SALE,July-5-2023,Single Family Residential,8018 Park Overlook Dr,Bethesda,MD,20817,1100000,5,3,CARDEROCK SPRINGS,2940,18144,1965,,374,4,Sold,,,https://www.redfin.com/MD/Bethesda/8018-Park-Overlook-Dr-20817/home/10888540,BRIGHT MLS,MDMC2095826,N,Y,38.9915984,-77.1645359
PAST SALE,May-31-2023,Single Family Residential,6409 Marjory Ln,Bethesda,MD,20817,2435000,6,5,MERRIMACK PARK,5014,8029,2023,,486,,Sold,,,https://www.redfin.com/MD/Bethesda/6409-Marjory-Ln-20817/home/10669171,BRIGHT MLS,MDMC2086176,N,Y,38.9750337,-77.1303372
PAST SALE,July-14-2023,Single Family Residential,5614 Northfield Rd,Bethesda,MD,20817,850000,3,2,GREENWICH FOREST,1334,5688,1949,,637,,Sold,,,https://www.redfin.com/MD/Bethesda/5614-Northfield-Rd-20817/home/10646637,BRIGHT MLS,MDMC2092984,N,Y,38.9929585,-77.1149649
PAST SALE,June-16-2023,Single Family Residential,7809 Cayuga Ave,Bethesda,MD,20817,1150000,5,3,COHASSET,2210,11625,1959,,520,,Sold,,,https://www.redfin.com/MD/Bethesda/7809-Cayuga-Ave-20817/home/10674131,BRIGHT MLS,MDMC2091578,N,Y,38.9888013,-77.1373036
PAST SALE,May-26-2023,Townhouse,5338 Pooks Hill Rd #303,Bethesda,MD,20814,518000,2,2,BETHESDA OVERLOOK,1152,,1958,,450,287,Sold,,,https://www.redfin.com/MD/Bethesda/5338-Pooks-Hill-Rd-20814/unit-303/home/10685906,BRIGHT MLS,MDMC2090224,N,Y,39.0148379,-77.1073105
PAST SALE,August-9-2023,Townhouse,4924 Bradley Blvd #239,Chevy Chase,MD,20815,885000,3,2.5,KENWOOD FOREST II,1422,,1951,,622,497,Sold,,,https://www.redfin.com/MD/Chevy-Chase/4924-Bradley-Blvd-20815/unit-239/home/10695652,BRIGHT MLS,MDMC2099126,N,Y,38.9775313,-77.0963985
PAST SALE,September-25-2023,Single Family Residential,10003 Fernwood Rd,Bethesda,MD,20817,1025000,4,3.5,FERNWOOD,2712,11139,1962,,378,,Sold,,,https://www.redfin.com/MD/Bethesda/10003-Fernwood-Rd-20817/home/10672179,BRIGHT MLS,MDMC2103170,N,Y,39.0203563,-77.1342025
PAST SALE,July-18-2023,Single Family Residential,9202 Ewing Dr,Bethesda,MD,20817,2050000,5,4.5,ALTA VISTA TERRACE,5100,6600,2023,,402,,Sold,,,https://www.redfin.com/MD/Bethesda/9202-Ewing-Dr-20817/home/10677700,BRIGHT MLS,MDMC2090798,N,Y,39.0061978,-77.1236851
PAST SALE,May-16-2023,Single Family Residential,5618 Wood Way,Bethesda,MD,20816,1355000,3,4.5,SUMNER,2760,6854,1950,,491,,Sold,,,https://www.redfin.com/MD/Bethesda/5618-Wood-Way-20816/home/10666326,BRIGHT MLS,MDMC2088432,N,Y,38.9559368,-77.1144704
PAST SALE,August-18-2023,Single Family Residential,9906 Pomona Dr,Bethesda,MD,20817,950000,4,3,ASHBURTON,1885,8400,1958,,504,,Sold,,,https://www.redfin.com/MD/Bethesda/9906-Pomona-Dr-20817/home/10670384,BRIGHT MLS,MDMC2096484,N,Y,39.0179471,-77.1260898
PAST SALE,September-27-2023,Single Family Residential,6404 Bannockburn Dr,Bethesda,MD,20817,910000,3,3,BANNOCKBURN COOP,1675,11394,1958,,543,,Sold,,,https://www.redfin.com/MD/Bethesda/6404-Bannockburn-Dr-20817/home/10678301,BRIGHT MLS,MDMC2100276,N,Y,38.975386,-77.1395957
PAST SALE,August-22-2023,Townhouse,4842 Montgomery Ln,Bethesda,MD,20814,1700000,4,3.5,EDGEMOOR,2483,954,1998,,685,310,Sold,,,https://www.redfin.com/MD/Bethesda/4842-Montgomery-Ln-20814/home/10701581,BRIGHT MLS,MDMC2101662,N,Y,38.9830391,-77.0976124
PAST SALE,September-29-2023,Single Family Residential,10026 Clue Dr,Bethesda,MD,20817,925000,4,3,MARYMOUNT,1896,6652,1955,,488,,Sold,,,https://www.redfin.com/MD/Bethesda/10026-Clue-Dr-20817/home/10675640,BRIGHT MLS,MDMC2105228,N,Y,39.0220977,-77.1268334
PAST SALE,May-1-2023,Single Family Residential,6408 Highland Dr,Chevy Chase,MD,20815,6450000,6,8,KENWOOD,10050,21438,1942,,642,,Sold,,,https://www.redfin.com/MD/Chevy-Chase/6408-Highland-Dr-20815/home/10701243,BRIGHT MLS,MDMC2086630,N,Y,38.9727972,-77.1103348
PAST SALE,June-23-2023,Single Family Residential,8606 Bradmoor Dr,Bethesda,MD,20817,2435000,7,5.5,BRADMOOR,5763,8526,2023,,423,,Sold,,,https://www.redfin.com/MD/Bethesda/8606-Bradmoor-Dr-20817/home/10662058,BRIGHT MLS,MDMC2090302,N,Y,38.9971488,-77.1194599
PAST SALE,August-31-2023,Single Family Residential,6407 W Halbert Rd,Bethesda,MD,20817,2225000,5,4.5,BANNOCKBURN COOP,4690,8489,2023,,474,,Sold,,,https://www.redfin.com/MD/Bethesda/6407-W-Halbert-Rd-20817/home/10678422,BRIGHT MLS,MDMC2098068,N,Y,38.9743387,-77.1417079
PAST SALE,June-16-2023,Single Family Residential,6603 Braeburn Pkwy,Bethesda,MD,20817,2800000,6,6.5,BANNOCKBURN HEIGHTS,9809,63980,2000,,285,,Sold,,,https://www.redfin.com/MD/Bethesda/6603-Braeburn-Pkwy-20817/home/10679243,BRIGHT MLS,MDMC2091824,N,Y,38.9803645,-77.1348092
PAST SALE,June-16-2023,Single Family Residential,5607 Pioneer Ln,Bethesda,MD,20816,1420000,4,2.5,SUMNER,2645,8019,1953,,537,,Sold,,,https://www.redfin.com/MD/Bethesda/5607-Pioneer-Ln-20816/home/10666711,BRIGHT MLS,MDMC2088056,N,Y,38.9536456,-77.1140658
PAST SALE,May-8-2023,Townhouse,5818 Madaket Rd,Bethesda,MD,20816,1950818,4,3.5,BROOKMONT,4304,3945,1988,,453,650,Sold,,,https://www.redfin.com/MD/Bethesda/5818-Madaket-Rd-20816/home/10697782,BRIGHT MLS,MDMC2089208,N,Y,38.9442009,-77.1182013
PAST SALE,June-20-2023,Single Family Residential,4829 Drummond Ave,Chevy Chase,MD,20815,2500000,5,4.5,WEST CHEVY CHASE,4807,11400,2012,,520,,Sold,,,https://www.redfin.com/MD/Chevy-Chase/4829-Drummond-Ave-20815/home/44618023,BRIGHT MLS,MDMC2085902,N,Y,38.9708392,-77.0976798
PAST SALE,August-25-2023,Single Family Residential,6214 Wagner Ln,Bethesda,MD,20816,1510000,4,3,FAIRWAY HILLS,3446,6900,2005,,438,,Sold,,,https://www.redfin.com/MD/Bethesda/6214-Wagner-Ln-20816/home/10671832,BRIGHT MLS,MDMC2099212,N,Y,38.9716721,-77.1408091
PAST SALE,July-21-2023,Single Family Residential,110 Lucas Ln,Bethesda,MD,20814,1200000,3,3,GLENBROOK KNOLLS,2523,5206,1934,,476,,Sold,,,https://www.redfin.com/MD/Bethesda/110-Lucas-Ln-20814/home/10647138,BRIGHT MLS,MDMC2095136,N,Y,38.9928036,-77.1049852
PAST SALE,June-12-2023,Single Family Residential,8409 Lilly Stone Dr,Bethesda,MD,20817,1400000,4,3,CARDEROCK SPRINGS,2716,15009,1965,,515,,Sold,,,https://www.redfin.com/MD/Bethesda/8409-Lilly-Stone-Dr-20817/home/10888936,BRIGHT MLS,MDMC2088580,N,Y,38.9858542,-77.1730728
PAST SALE,July-13-2023,Single Family Residential,4809 Fort Sumner Dr,Bethesda,MD,20816,2425000,5,5.5,SUMNER,4192,21830,1965,,578,,Sold,,,https://www.redfin.com/MD/Bethesda/4809-Fort-Sumner-Dr-20816/home/10666167,BRIGHT MLS,MDMC2097630,N,Y,38.9518381,-77.1135039
PAST SALE,August-25-2023,Single Family Residential,8104 Maple Ridge Rd,Bethesda,MD,20814,1200000,4,3.5,BATTERY PARK,2800,4947,1936,,429,,Sold,,,https://www.redfin.com/MD/Bethesda/8104-Maple-Ridge-Rd-20814/home/10638478,BRIGHT MLS,MDMC2100672,N,Y,38.9918375,-77.1067385
PAST SALE,July-18-2023,Single Family Residential,103 N Brook Ln,Bethesda,MD,20814,1170000,3,3,GLENBROOK KNOLLS,1452,5200,1940,,806,,Sold,,,https://www.redfin.com/MD/Bethesda/103-N-Brook-Ln-20814/home/10647143,BRIGHT MLS,MDMC2096030,N,Y,38.9914706,-77.1045357
PAST SALE,July-14-2023,Single Family Residential,6808 Carlynn Ct,Bethesda,MD,20817,1350000,5,4,CONG COUNTRY CLUB EST,3196,14981,1977,,422,,Sold,,,https://www.redfin.com/MD/Bethesda/6808-Carlynn-Ct-20817/home/10686474,BRIGHT MLS,MDMC2092362,N,Y,38.9772436,-77.1735221
PAST SALE,June-20-2023,Townhouse,4977 Battery Ln Unit 1-807,Bethesda,MD,20814,224000,1,1,WHITEHALL CODM,817,,1963,,274,775,Sold,,,https://www.redfin.com/MD/Bethesda/4977-Battery-Ln-20814/unit-1-807/home/10695167,BRIGHT MLS,MDMC2090446,N,Y,38.993067,-77.102193
PAST SALE,May-26-2023,Single Family Residential,4903 Jamestown Rd,Bethesda,MD,20816,1315000,3,3.5,YORKTOWN VILLAGE,2550,5886,1941,,516,,Sold,,,https://www.redfin.com/MD/Bethesda/4903-Jamestown-Rd-20816/home/10675324,BRIGHT MLS,MDMC2088722,N,Y,38.9530296,-77.0996916
PAST SALE,September-26-2023,Single Family Residential,4803 Scarsdale Rd,Bethesda,MD,20816,2150000,5,4.5,SUMNER,4093,10746,1959,,525,,Sold,,,https://www.redfin.com/MD/Bethesda/4803-Scarsdale-Rd-20816/home/10666715,BRIGHT MLS,MDMC2105966,N,Y,38.9527611,-77.115302
PAST SALE,June-30-2023,Single Family Residential,5116 Wickett Ter,Bethesda,MD,20814,949000,4,3,MAPLEWOOD ESTATES,2130,7100,1958,,446,,Sold,,,https://www.redfin.com/MD/Bethesda/5116-Wickett-Ter-20814/home/10672320,BRIGHT MLS,MDMC2093724,N,Y,39.0107865,-77.1030971
PAST SALE,June-16-2023,Single Family Residential,10001 Carter Rd,Bethesda,MD,20817,1375000,7,4,ASHLEIGH,4744,30185,1965,,290,,Sold,,,https://www.redfin.com/MD/Bethesda/10001-Carter-Rd-20817/home/10888107,BRIGHT MLS,MDMC2090586,N,Y,39.0203375,-77.1553918
PAST SALE,June-9-2023,Single Family Residential,5511 Thornbush Ct,Bethesda,MD,20814,1250000,4,4.5,GROSVENOR WOODS,3645,5035,1993,,343,170,Sold,,,https://www.redfin.com/MD/Bethesda/5511-Thornbush-Ct-20814/home/10698018,BRIGHT MLS,MDMC2088696,N,Y,39.0233144,-77.1093834
PAST SALE,October-20-2023,Single Family Residential,5818 Greentree Rd,Bethesda,MD,20817,853000,3,2.5,BRADMOOR,1644,6587,1959,,519,,Sold,,,https://www.redfin.com/MD/Bethesda/5818-Greentree-Rd-20817/home/10662363,BRIGHT MLS,MDMC2108100,N,Y,39.0010058,-77.1181114
PAST SALE,September-29-2023,Single Family Residential,5807 Greenlawn Dr,Bethesda,MD,20814,1110000,4,3.5,NORTH BETHESDA,2390,10111,1960,,464,,Sold,,,https://www.redfin.com/MD/Bethesda/5807-Greenlawn-Dr-20814/home/10677066,BRIGHT MLS,MDMC2106358,N,Y,39.0213076,-77.1165452
PAST SALE,July-6-2023,Single Family Residential,7129 Helmsdale Rd,Bethesda,MD,20817,1650000,6,4.5,BANNOCKBURN ESTATES,6144,23178,1964,,269,,Sold,,,https://www.redfin.com/MD/Bethesda/7129-Helmsdale-Rd-20817/home/10679029,BRIGHT MLS,MDMC2093864,N,Y,38.9817217,-77.1518193
PAST SALE,June-29-2023,Single Family Residential,7 Springer Ct,Bethesda,MD,20817,2380000,4,4.5,WEST BETHESDA PARK,5393,11703,1981,,441,,Sold,,,https://www.redfin.com/MD/Bethesda/7-Springer-Ct-20817/home/10688193,BRIGHT MLS,MDMC2092482,N,Y,38.9882291,-77.1325396
PAST SALE,October-18-2023,Single Family Residential,8610 Lancaster Dr,Bethesda,MD,20814,1400000,4,3.5,GLENBROOK VILLAGE,2736,5901,2012,,512,,Sold,,,https://www.redfin.com/MD/Bethesda/8610-Lancaster-Dr-20814/home/10647848,BRIGHT MLS,MDMC2105908,N,Y,38.9974905,-77.0886879
PAST SALE,June-2-2023,Single Family Residential,5206 Glenwood Rd,Bethesda,MD,20814,1500000,3,3.5,GLENWOOD,2776,5750,1942,,540,,Sold,,,https://www.redfin.com/MD/Bethesda/5206-Glenwood-Rd-20814/home/10657689,BRIGHT MLS,MDMC2090556,N,Y,38.9936861,-77.1064238
PAST SALE,June-1-2023,Single Family Residential,4407 Gladwyne Dr,Bethesda,MD,20814,918000,3,3,GLENBROOK VILLAGE,1560,5606,1940,,588,,Sold,,,https://www.redfin.com/MD/Bethesda/4407-Gladwyne-Dr-20814/home/10647841,BRIGHT MLS,MDMC2086156,N,Y,38.9968469,-77.0888453
PAST SALE,October-16-2023,Single Family Residential,4312 Rosedale Ave,Bethesda,MD,20814,2399000,5,4.5,COLUMBIA FOREST,4768,7646,2023,,503,,Sold,,,https://www.redfin.com/MD/Bethesda/4312-Rosedale-Ave-20814/home/10662974,BRIGHT MLS,MDMC2085984,N,Y,38.9923659,-77.0856979
PAST SALE,October-6-2023,Single Family Residential,5613 Alta Vista Rd,Bethesda,MD,20817,1295000,5,3.5,ALTA VISTA,3600,6001,1962,,360,,Sold,,,https://www.redfin.com/MD/Bethesda/5613-Alta-Vista-Rd-20817/home/10656247,BRIGHT MLS,MDMC2105764,N,Y,39.0063439,-77.1135264
PAST SALE,June-23-2023,Single Family Residential,5519 Westbard Ave,Bethesda,MD,20816,1410000,4,3.5,WESTWOOD,3690,9530,1973,,382,,Sold,,,https://www.redfin.com/MD/Bethesda/5519-Westbard-Ave-20816/home/10675103,BRIGHT MLS,MDMC2084832,N,Y,38.9675038,-77.1085366
PAST SALE,June-15-2023,Single Family Residential,4701 Broad Brook Dr,Bethesda,MD,20814,950000,4,4.5,LOCUST HILL ESTATES,2496,17600,1944,,381,,Sold,,,https://www.redfin.com/MD/Bethesda/4701-Broad-Brook-Dr-20814/home/10664401,BRIGHT MLS,MDMC2093514,N,Y,39.0112617,-77.0941056
PAST SALE,June-9-2023,Single Family Residential,5506 Trent St,Chevy Chase,MD,20815,3333000,5,5.5,SOMERSET HEIGHTS,5488,8383,2023,,607,,Sold,,,https://www.redfin.com/MD/Chevy-Chase/5506-Trent-St-20815/home/10653437,BRIGHT MLS,MDMC2089286,N,Y,38.964291,-77.0977472
PAST SALE,June-12-2023,Single Family Residential,7423 Hampden Ln,Bethesda,MD,20814,4750000,5,5,EDGEMOOR,6600,12816,2011,,720,,Sold,,,https://www.redfin.com/MD/Bethesda/7423-Hampden-Ln-20814/home/10645734,BRIGHT MLS,MDMC2088512,N,Y,38.9837411,-77.108177
PAST SALE,May-15-2023,Single Family Residential,5332 Baltimore Ave,Chevy Chase,MD,20815,1080000,3,2.5,ORCHARDALE,1732,5000,1947,,624,,Sold,,,https://www.redfin.com/MD/Chevy-Chase/5332-Baltimore-Ave-20815/home/10672548,BRIGHT MLS,MDMC2087668,N,Y,38.9623008,-77.0949261
PAST SALE,July-10-2023,Single Family Residential,6110 Welborn Dr,Bethesda,MD,20816,950000,4,3,WOODACRES,1470,7904,1941,,646,,Sold,,,https://www.redfin.com/MD/Bethesda/6110-Welborn-Dr-20816/home/10658392,BRIGHT MLS,MDMC2095806,N,Y,38.9677097,-77.1247189
PAST SALE,May-25-2023,Single Family Residential,7408 Fairfax Rd,Bethesda,MD,20814,2510000,5,3.5,EDGEMOOR,4400,9180,1936,,570,,Sold,,,https://www.redfin.com/MD/Bethesda/7408-Fairfax-Rd-20814/home/10645932,BRIGHT MLS,MDMC2087430,N,Y,38.9840956,-77.1056146
PAST SALE,September-22-2023,Single Family Residential,6105 Berkshire Dr,Bethesda,MD,20814,842940,3,3,WILDWOOD MANOR,2147,8400,1962,,393,,Sold,,,https://www.redfin.com/MD/Bethesda/6105-Berkshire-Dr-20814/home/10681116,BRIGHT MLS,MDMC2101506,N,Y,39.0241684,-77.1224265
PAST SALE,August-31-2023,Single Family Residential,6013 Johnson Ave,Bethesda,MD,20817,1050000,5,3,AYRLAWN,2642,8011,1968,,397,,Sold,,,https://www.redfin.com/MD/Bethesda/6013-Johnson-Ave-20817/home/10661231,BRIGHT MLS,MDMC2099730,N,Y,39.0049832,-77.122788
PAST SALE,June-23-2023,Single Family Residential,8104 Old Georgetown Rd,Bethesda,MD,20814,1725000,6,4.5,BATTERY PARK,4079,7250,2014,,423,,Sold,,,https://www.redfin.com/MD/Bethesda/8104-Old-Georgetown-Rd-20814/home/10638579,BRIGHT MLS,MDMC2089648,N,Y,38.9903481,-77.104176
PAST SALE,September-28-2023,Single Family Residential,8719 Ewing Dr,Bethesda,MD,20817,1040000,4,2.5,BRADMOOR,2788,11132,1968,,373,,Sold,,,https://www.redfin.com/MD/Bethesda/8719-Ewing-Dr-20817/home/10662596,BRIGHT MLS,MDMC2101708,N,Y,39.0000557,-77.122876
PAST SALE,August-16-2023,Single Family Residential,5615 Wilson Ln,Bethesda,MD,20814,1400000,4,3.5,ENGLISH VILLAGE,3302,8677,1933,,424,,Sold,,,https://www.redfin.com/MD/Bethesda/5615-Wilson-Ln-20814/home/10646159,BRIGHT MLS,MDMC2097670,N,Y,38.9865998,-77.1140209
PAST SALE,July-5-2023,Single Family Residential,4206 Oakridge Ln,Chevy Chase,MD,20815,1350000,3,2,TARRYTOWN,1928,5222,1948,,700,,Sold,,,https://www.redfin.com/MD/Chevy-Chase/4206-Oakridge-Ln-20815/home/10675601,BRIGHT MLS,MDMC2093106,N,Y,38.9843543,-77.0853832
PAST SALE,July-5-2023,Townhouse,5406 Merriam St,Bethesda,MD,20814,1490000,4,3.5,GROSVENOR HEIGHTS,3132,2070,2017,,476,187,Sold,,,https://www.redfin.com/MD/Bethesda/5406-Merriam-St-20814/home/147606381,BRIGHT MLS,MDMC2094830,N,Y,39.020441,-77.1078797
PAST SALE,May-31-2023,Single Family Residential,7544 Pepperell Dr,Bethesda,MD,20817,1445000,4,4,AL MARAH,4260,16331,1982,,339,,Sold,,,https://www.redfin.com/MD/Bethesda/7544-Pepperell-Dr-20817/home/10690550,BRIGHT MLS,MDMC2088336,N,Y,38.9868534,-77.1550548
PAST SALE,May-15-2023,Townhouse,9759 Sanvitalia St,Bethesda,MD,20817,1199900,3,3.5,RANDOLPH FARMS,2664,2184,2022,,450,338,Sold,,,https://www.redfin.com/MD/Bethesda/9759-Sanvitalia-St-20817/home/178427713,BRIGHT MLS,MDMC2083772,N,Y,39.016253,-77.14463
PAST SALE,June-8-2023,Single Family Residential,5408 Christy Dr,Bethesda,MD,20816,1275000,4,3,SPRINGFIELD,2485,8800,1955,,513,,Sold,,,https://www.redfin.com/MD/Bethesda/5408-Christy-Dr-20816/home/10665578,BRIGHT MLS,MDMC2089840,N,Y,38.9625295,-77.1167629
PAST SALE,June-28-2023,Single Family Residential,5516 Sonoma Rd,Bethesda,MD,20817,2450000,6,6,SONOMA,5724,8747,2023,,428,,Sold,,,https://www.redfin.com/MD/Bethesda/5516-Sonoma-Rd-20817/home/10652968,BRIGHT MLS,MDMC2093800,N,Y,39.0015993,-77.1119531
PAST SALE,September-8-2023,Single Family Residential,7204 Selkirk Dr,Bethesda,MD,20817,1475000,4,6,FLINT HILL COMMUNITY,5861,36037,1961,,252,,Sold,,,https://www.redfin.com/MD/Bethesda/7204-Selkirk-Dr-20817/home/10637672,BRIGHT MLS,MDMC2101042,N,Y,38.9855101,-77.1458874
PAST SALE,August-23-2023,Single Family Residential,6305 Haviland Dr,Bethesda,MD,20817,985000,3,3,WOODBURN,2010,8250,1954,,490,,Sold,,,https://www.redfin.com/MD/Bethesda/6305-Haviland-Dr-20817/home/10675204,BRIGHT MLS,MDMC2100868,N,Y,38.9729219,-77.1232806
PAST SALE,September-29-2023,Single Family Residential,5103 Bradley Blvd,Chevy Chase,MD,20815,1700000,4,5.5,BRADLEY HILLS,4593,6600,1998,,370,,Sold,,,https://www.redfin.com/MD/Chevy-Chase/5103-Bradley-Blvd-20815/home/10639668,BRIGHT MLS,MDMC2105540,N,Y,38.9780101,-77.1013888
PAST SALE,August-28-2023,Townhouse,6719 Fairfax Rd #67,Chevy Chase,MD,20815,824000,3,2.5,KENWOOD FOREST,1164,,1950,,708,443,Sold,,,https://www.redfin.com/MD/Chevy-Chase/6719-Fairfax-Rd-20815/unit-67/home/10687906,BRIGHT MLS,MDMC2101930,N,Y,38.9767163,-77.1007983
PAST SALE,June-23-2023,Single Family Residential,6832 Winterberry Ln,Bethesda,MD,20817,1660000,5,4.5,BURNING TREE VALLEY,5176,15491,1960,,321,,Sold,,,https://www.redfin.com/MD/Bethesda/6832-Winterberry-Ln-20817/home/10673906,BRIGHT MLS,MDMC2091300,N,Y,38.9904851,-77.1387418
PAST SALE,September-8-2023,Single Family Residential,6015 Benalder Dr,Bethesda,MD,20816,810000,2,2.5,FAIRWAY HILLS,2192,6921,1957,,370,,Sold,,,https://www.redfin.com/MD/Bethesda/6015-Benalder-Dr-20816/home/10671819,BRIGHT MLS,MDMC2102766,N,Y,38.9703285,-77.137753
PAST SALE,August-1-2023,Townhouse,7902 Jensen Pl,Bethesda,MD,20817,860000,3,3.5,AL MARAH,1852,4044,1985,,464,42,Sold,,,https://www.redfin.com/MD/Bethesda/7902-Jensen-Pl-20817/home/10696598,BRIGHT MLS,MDMC2097150,N,Y,38.988303,-77.150812
PAST SALE,July-7-2023,Single Family Residential,8201 Bryant Dr,Bethesda,MD,20817,1250000,5,3.5,WOODHAVEN,2800,9528,1960,,446,,Sold,,,https://www.redfin.com/MD/Bethesda/8201-Bryant-Dr-20817/home/10670217,BRIGHT MLS,MDMC2095766,N,Y,38.9903985,-77.1315058
PAST SALE,May-31-2023,Townhouse,5529 Whitley Park Ter #88,Bethesda,MD,20814,715000,3,3.5,WHITLEY PARK CODM,2160,,1994,,331,438,Sold,,,https://www.redfin.com/MD/Bethesda/5529-Whitley-Park-Ter-20814/unit-88/home/10700796,BRIGHT MLS,MDMC2084382,N,Y,39.0160531,-77.1101437
PAST SALE,September-29-2023,Single Family Residential,5904 Carlton Ln,Bethesda,MD,20816,2265000,5,4.5,GLEN MAR PARK,5006,8000,2016,,452,,Sold,,,https://www.redfin.com/MD/Bethesda/5904-Carlton-Ln-20816/home/10657055,BRIGHT MLS,MDMC2104714,N,Y,38.9583797,-77.1198195
PAST SALE,August-16-2023,Single Family Residential,5309 Briley Pl,Bethesda,MD,20816,2355000,6,4.5,SPRINGFIELD,5124,8679,2020,,460,,Sold,,,https://www.redfin.com/MD/Bethesda/5309-Briley-Pl-20816/home/10665452,BRIGHT MLS,MDMC2093440,N,Y,38.9606034,-77.1131668
